{"_id":{"$oid":"5e9e1a813483ea7ae2f71a6e"},"title":"180","description":[{"locations":"555 Market St.","lat_lon":"37.790152,-122.3999811","release_year":"2011","production_company":"SPI Cinemas","director":"Jayendra","writer":"Umarji Anuradha, Jayendra, Aarthi Sriram, & Suba","actor_1":"Siddarth","actor_2":"Nithya Menon","actor_3":"Priya Anand"},{"locations":"Randall Museum","lat_lon":"37.7653028,-122.4406212","release_year":"2011","production_company":"SPI Cinemas","director":"Jayendra","writer":"Umarji Anuradha, Jayendra, Aarthi Sriram, & Suba","actor_1":"Siddarth","actor_2":"Nithya Menon","actor_3":"Priya Anand"},{"locations":"City Hall","lat_lon":"37.7796493,-122.4191953","release_year":"2011","production_company":"SPI Cinemas","director":"Jayendra","writer":"Umarji Anuradha, Jayendra, Aarthi Sriram, & Suba","actor_1":"Siddarth","actor_2":"Nithya Menon","actor_3":"Priya Anand"},{"locations":"Polk & Larkin Streets","lat_lon":"37.791635, -122.420027","release_year":"2011","production_company":"SPI Cinemas","director":"Jayendra","writer":"Umarji Anuradha, Jayendra, Aarthi Sriram, & Suba","actor_1":"Siddarth","actor_2":"Nithya Menon","actor_3":"Priya Anand"},{"locations":"Epic Roasthouse (399 Embarcadero)","lat_lon":"37.7905489,-122.3896194","release_year":"2011","production_company":"SPI Cinemas","director":"Jayendra","writer":"Umarji Anuradha, Jayendra, Aarthi Sriram, & Suba","actor_1":"Siddarth","actor_2":"Nithya Menon","actor_3":"Priya Anand"},{"locations":"Justin Herman Plaza","lat_lon":"37.7950038,-122.3956595","release_year":"2011","production_company":"SPI Cinemas","director":"Jayendra","writer":"Umarji Anuradha, Jayendra, Aarthi Sriram, & Suba","actor_1":"Siddarth","actor_2":"Nithya Menon","actor_3":"Priya Anand"},{"locations":"200 block Market Street","lat_lon":"37.7932135,-122.3965596","release_year":"2011","production_company":"SPI Cinemas","director":"Jayendra","writer":"Umarji Anuradha, Jayendra, Aarthi Sriram, & Suba","actor_1":"Siddarth","actor_2":"Nithya Menon","actor_3":"Priya Anand"},{"locations":"Mason & California Streets (Nob Hill)","lat_lon":"37.7918463,-122.4130315","release_year":"2011","production_company":"SPI Cinemas","director":"Jayendra","writer":"Umarji Anuradha, Jayendra, Aarthi Sriram, & Suba","actor_1":"Siddarth","actor_2":"Nithya Menon","actor_3":"Priya Anand"},{"locations":"Epic Roasthouse (399 Embarcadero)","lat_lon":"37.7905489,-122.3896194","release_year":"2011","production_company":"SPI Cinemas","director":"Jayendra","writer":"Umarji Anuradha, Jayendra, Aarthi Sriram, & Suba","actor_1":"Siddarth","actor_2":"Nithya Menon","actor_3":"Priya Anand"},{"locations":"Mason & California Streets (Nob Hill)","lat_lon":"37.7918463,-122.4130315","release_year":"2011","production_company":"SPI Cinemas","director":"Jayendra","writer":"Umarji Anuradha, Jayendra, Aarthi Sriram, & Suba","actor_1":"Siddarth","actor_2":"Nithya Menon","actor_3":"Priya Anand"},{"locations":"Justin Herman Plaza","lat_lon":"37.7950038,-122.3956595","release_year":"2011","production_company":"SPI Cinemas","director":"Jayendra","writer":"Umarji Anuradha, Jayendra, Aarthi Sriram, & Suba","actor_1":"Siddarth","actor_2":"Nithya Menon","actor_3":"Priya Anand"},{"locations":"200 block Market Street","lat_lon":"37.7932135,-122.3965596","release_year":"2011","production_company":"SPI Cinemas","director":"Jayendra","writer":"Umarji Anuradha, Jayendra, Aarthi Sriram, & Suba","actor_1":"Siddarth","actor_2":"Nithya Menon","actor_3":"Priya Anand"},{"locations":"City Hall","lat_lon":"37.7796493,-122.4191953","release_year":"2011","production_company":"SPI Cinemas","director":"Jayendra","writer":"Umarji Anuradha, Jayendra, Aarthi Sriram, & Suba","actor_1":"Siddarth","actor_2":"Nithya Menon","actor_3":"Priya Anand"},{"locations":"Polk & Larkin Streets","lat_lon":"37.791635, -122.420027","release_year":"2011","production_company":"SPI Cinemas","director":"Jayendra","writer":"Umarji Anuradha, Jayendra, Aarthi Sriram, & Suba","actor_1":"Siddarth","actor_2":"Nithya Menon","actor_3":"Priya Anand"},{"locations":"Randall Museum","lat_lon":"37.7653028,-122.4406212","release_year":"2011","production_company":"SPI Cinemas","director":"Jayendra","writer":"Umarji Anuradha, Jayendra, Aarthi Sriram, & Suba","actor_1":"Siddarth","actor_2":"Nithya Menon","actor_3":"Priya Anand"},{"locations":"555 Market St.","lat_lon":"37.790152,-122.3999811","release_year":"2011","production_company":"SPI Cinemas","director":"Jayendra","writer":"Umarji Anuradha, Jayendra, Aarthi Sriram, & Suba","actor_1":"Siddarth","actor_2":"Nithya Menon","actor_3":"Priya Anand"}]}
{"_id":{"$oid":"5e9e1a813483ea7ae2f71a6f"},"title":"24 Hours on Craigslist","description":[{"release_year":"2005","production_company":"Yerba Buena Productions","distributor":"Zealot Pictures","director":"Michael Ferris Gibson","writer":"N/A","actor_1":"Craig Newmark"},{"release_year":"2005","production_company":"Yerba Buena Productions","distributor":"Zealot Pictures","director":"Michael Ferris Gibson","writer":"N/A","actor_1":"Craig Newmark"}]}
{"_id":{"$oid":"5e9e1a813483ea7ae2f71a70"},"title":"40 Days and 40 Nights","description":[{"locations":"Café Trieste (609 Vallejo)","lat_lon":"37.7986417,-122.4095026","release_year":"2002","fun_facts":"Francis Ford Coppola allegedly wrote large portions of \"The Godfather\" trilogy in Café Trieste.","production_company":"Miramax Films","distributor":"Miramax Films","director":"Michael Lehmann","writer":"Robert Perez","actor_1":"Josh Hartnett","actor_2":"Shaynnyn Sossamon"},{"locations":"The Walden House, Buena Vista Park","lat_lon":"37.7684088,-122.4436032","release_year":"2002","fun_facts":"Established in 1867, Buena Vista Park is the oldest official park in San Francisco.","production_company":"Miramax Films","distributor":"Miramax Films","director":"Michael Lehmann","writer":"Robert Perez","actor_1":"Josh Hartnett","actor_2":"Shaynnyn Sossamon"},{"locations":"The Walden House, Buena Vista Park","lat_lon":"37.7684088,-122.4436032","release_year":"2002","fun_facts":"Established in 1867, Buena Vista Park is the oldest official park in San Francisco.","production_company":"Miramax Films","distributor":"Miramax Films","director":"Michael Lehmann","writer":"Robert Perez","actor_1":"Josh Hartnett","actor_2":"Shaynnyn Sossamon"},{"locations":"Café Trieste (609 Vallejo)","lat_lon":"37.7986417,-122.4095026","release_year":"2002","fun_facts":"Francis Ford Coppola allegedly wrote large portions of \"The Godfather\" trilogy in Café Trieste.","production_company":"Miramax Films","distributor":"Miramax Films","director":"Michael Lehmann","writer":"Robert Perez","actor_1":"Josh Hartnett","actor_2":"Shaynnyn Sossamon"}]}
{"_id":{"$oid":"5e9e1a813483ea7ae2f71a71"},"title":"48 Hours","description":[{"release_year":"1982","production_company":"Paramount Pictures","distributor":"Paramount Pictures","director":"Walter Hill","writer":"Walter Hill","actor_1":"Nick Nolte","actor_2":"Eddie Murphy","actor_3":"Annette O'Toole"},{"release_year":"1982","production_company":"Paramount Pictures","distributor":"Paramount Pictures","director":"Walter Hill","writer":"Walter Hill","actor_1":"Nick Nolte","actor_2":"Eddie Murphy","actor_3":"Annette O'Toole"}]}
{"_id":{"$oid":"5e9e1a813483ea7ae2f71a72"},"title":"50 First Dates","description":[{"locations":"Rainforest Café (145 Jefferson Street)","lat_lon":"37.8077042,-122.4177416","release_year":"2004","production_company":"Columbia Pictures Corporation","distributor":"Columbia Pictures","director":"Peter Segal","writer":"George Wing","actor_1":"Adam Sandler","actor_2":"Drew Barrymore"},{"locations":"Rainforest Café (145 Jefferson Street)","lat_lon":"37.8077042,-122.4177416","release_year":"2004","production_company":"Columbia Pictures Corporation","distributor":"Columbia Pictures","director":"Peter Segal","writer":"George Wing","actor_1":"Adam Sandler","actor_2":"Drew Barrymore"}]}
{"_id":{"$oid":"5e9e1a813483ea7ae2f71a73"},"title":"A Jitney Elopement","description":[{"locations":"20th and Folsom Streets","lat_lon":"37.7589149,-122.4169085","release_year":"1915","production_company":"The Essanay Film Manufacturing Company","distributor":"General Film Company","director":"Charles Chaplin","writer":"Charles Chaplin","actor_1":"Charles Chaplin","actor_2":"Edna Purviance"},{"locations":"Golden Gate Park","lat_lon":"37.7883745,-122.4510499","release_year":"1915","fun_facts":"During San Francisco's Gold Rush era, the Park was part of an area designated as the \"Great Sand Waste\".","production_company":"The Essanay Film Manufacturing Company","distributor":"General Film Company","director":"Charles Chaplin","writer":"Charles Chaplin","actor_1":"Charles Chaplin","actor_2":"Edna Purviance"},{"locations":"Golden Gate Park","lat_lon":"37.7883745,-122.4510499","release_year":"1915","fun_facts":"During San Francisco's Gold Rush era, the Park was part of an area designated as the \"Great Sand Waste\".","production_company":"The Essanay Film Manufacturing Company","distributor":"General Film Company","director":"Charles Chaplin","writer":"Charles Chaplin","actor_1":"Charles Chaplin","actor_2":"Edna Purviance"},{"locations":"20th and Folsom Streets","lat_lon":"37.7589149,-122.4169085","release_year":"1915","production_company":"The Essanay Film Manufacturing Company","distributor":"General Film Company","director":"Charles Chaplin","writer":"Charles Chaplin","actor_1":"Charles Chaplin","actor_2":"Edna Purviance"}]}
{"_id":{"$oid":"5e9e1a813483ea7ae2f71a74"},"title":"A Night Full of Rain","description":[{"locations":"Broadway (North Beach)","lat_lon":"37.7979,-122.4087299","release_year":"1978","production_company":"Liberty Film","distributor":"Warner Bros. Pictures","director":"Lina Wertmuller","writer":"Lina Wertmuller","actor_1":"Candice Bergen","actor_2":"Giancarlo Gianni"},{"locations":"Embarcadero Freeway","lat_lon":"37.7876159,-122.2517802","release_year":"1978","fun_facts":"Embarcadero Freeway, which was featured in the film was demolished in 1989 because of structural damage from the 1989 Loma Prieta Earthquake)","production_company":"Liberty Film","distributor":"Warner Bros. Pictures","director":"Lina Wertmuller","writer":"Lina Wertmuller","actor_1":"Candice Bergen","actor_2":"Giancarlo Gianni"},{"locations":"San Francisco Chronicle (901 Mission Street at 15th Street)","lat_lon":"37.782205,-122.4087094","release_year":"1978","fun_facts":"The San Francisco Zodiac Killer of the late 1960s sent his notes and letters to the Chronicle's offices.","production_company":"Liberty Film","distributor":"Warner Bros. Pictures","director":"Lina Wertmuller","writer":"Lina Wertmuller","actor_1":"Candice Bergen","actor_2":"Giancarlo Gianni"},{"locations":"Fairmont Hotel (950 Mason Street, Nob Hill)","lat_lon":"37.791544, -122.410854","release_year":"1978","fun_facts":"In 1945 the Fairmont hosted the United Nations Conference on International Organization as delegates arrived to draft a charter for the organization. The U.S. Secretary of State, Edward Stettinius drafted the charter in the hotel's Garden Room.","production_company":"Liberty Film","distributor":"Warner Bros. Pictures","director":"Lina Wertmuller","writer":"Lina Wertmuller","actor_1":"Candice Bergen","actor_2":"Giancarlo Gianni"},{"locations":"Embarcadero Freeway","lat_lon":"37.7876159,-122.2517802","release_year":"1978","fun_facts":"Embarcadero Freeway, which was featured in the film was demolished in 1989 because of structural damage from the 1989 Loma Prieta Earthquake)","production_company":"Liberty Film","distributor":"Warner Bros. Pictures","director":"Lina Wertmuller","writer":"Lina Wertmuller","actor_1":"Candice Bergen","actor_2":"Giancarlo Gianni"},{"locations":"Fairmont Hotel (950 Mason Street, Nob Hill)","lat_lon":"37.791544, -122.410854","release_year":"1978","fun_facts":"In 1945 the Fairmont hosted the United Nations Conference on International Organization as delegates arrived to draft a charter for the organization. The U.S. Secretary of State, Edward Stettinius drafted the charter in the hotel's Garden Room.","production_company":"Liberty Film","distributor":"Warner Bros. Pictures","director":"Lina Wertmuller","writer":"Lina Wertmuller","actor_1":"Candice Bergen","actor_2":"Giancarlo Gianni"},{"locations":"San Francisco Chronicle (901 Mission Street at 15th Street)","lat_lon":"37.782205,-122.4087094","release_year":"1978","fun_facts":"The San Francisco Zodiac Killer of the late 1960s sent his notes and letters to the Chronicle's offices.","production_company":"Liberty Film","distributor":"Warner Bros. Pictures","director":"Lina Wertmuller","writer":"Lina Wertmuller","actor_1":"Candice Bergen","actor_2":"Giancarlo Gianni"},{"locations":"Broadway (North Beach)","lat_lon":"37.7979,-122.4087299","release_year":"1978","production_company":"Liberty Film","distributor":"Warner Bros. Pictures","director":"Lina Wertmuller","writer":"Lina Wertmuller","actor_1":"Candice Bergen","actor_2":"Giancarlo Gianni"}]}
{"_id":{"$oid":"5e9e1a813483ea7ae2f71a75"},"title":"A Smile Like Yours","description":[{"locations":"San Francisco International Airport","lat_lon":"37.6213129,-122.3811441","release_year":"1997","fun_facts":"SFO has a museum dedicated to aviation history.","production_company":"Paramount Pictures","distributor":"Paramount Pictures","director":"Keith Samples","writer":"Keith Samples & Kevin Meyer","actor_1":"Greg Kinnear","actor_2":"Lauren Holly"},{"locations":"75 California Street","lat_lon":"37.7931359,-122.3994286","release_year":"1997","production_company":"Paramount Pictures","distributor":"Paramount Pictures","director":"Keith Samples","writer":"Keith Samples & Kevin Meyer","actor_1":"Greg Kinnear","actor_2":"Lauren Holly"},{"locations":"Grace Cathedral Episcopal Church (1100 California Street)","lat_lon":"37.7919185,-122.4152148","release_year":"1997","fun_facts":"Grace Cathedral Episcopal Church is the West Coast's largest Episcopalian cathedral.","production_company":"Paramount Pictures","distributor":"Paramount Pictures","director":"Keith Samples","writer":"Keith Samples & Kevin Meyer","actor_1":"Greg Kinnear","actor_2":"Lauren Holly"},{"locations":"Hills Brothers Plaza (Embarcadero at Harrison Street)","lat_lon":"37.7895046,-122.3899834","release_year":"1997","production_company":"Paramount Pictures","distributor":"Paramount Pictures","director":"Keith Samples","writer":"Keith Samples & Kevin Meyer","actor_1":"Greg Kinnear","actor_2":"Lauren Holly"},{"locations":"75 California Street","lat_lon":"37.7931359,-122.3994286","release_year":"1997","production_company":"Paramount Pictures","distributor":"Paramount Pictures","director":"Keith Samples","writer":"Keith Samples & Kevin Meyer","actor_1":"Greg Kinnear","actor_2":"Lauren Holly"},{"locations":"Hills Brothers Plaza (Embarcadero at Harrison Street)","lat_lon":"37.7895046,-122.3899834","release_year":"1997","production_company":"Paramount Pictures","distributor":"Paramount Pictures","director":"Keith Samples","writer":"Keith Samples & Kevin Meyer","actor_1":"Greg Kinnear","actor_2":"Lauren Holly"},{"locations":"Grace Cathedral Episcopal Church (1100 California Street)","lat_lon":"37.7919185,-122.4152148","release_year":"1997","fun_facts":"Grace Cathedral Episcopal Church is the West Coast's largest Episcopalian cathedral.","production_company":"Paramount Pictures","distributor":"Paramount Pictures","director":"Keith Samples","writer":"Keith Samples & Kevin Meyer","actor_1":"Greg Kinnear","actor_2":"Lauren Holly"},{"locations":"San Francisco International Airport","lat_lon":"37.6213129,-122.3811441","release_year":"1997","fun_facts":"SFO has a museum dedicated to aviation history.","production_company":"Paramount Pictures","distributor":"Paramount Pictures","director":"Keith Samples","writer":"Keith Samples & Kevin Meyer","actor_1":"Greg Kinnear","actor_2":"Lauren Holly"}]}
{"_id":{"$oid":"5e9e1a813483ea7ae2f71a76"},"title":"A Taiwanese Tale of Two Cities","description":[{"locations":"Pier 5","lat_lon":"37.7960101,-122.3963116","release_year":"2018","production_company":"Envision Productions Inc.","distributor":"Netflix","director":"Tien-Lun Yeh","writer":"Ling-Hui Chen, Nancy Chen, Chih-Chi Fan, Chia-Hui Lin","actor_1":"Tammy Cheng","actor_2":"Peggy Tseng","actor_3":"Shen-Hao Wen"},{"locations":"1653 Haight and 1400-1500 blocks of Haight St","lat_lon":"37.7695459,-122.4519919","release_year":"2018","production_company":"Envision Productions Inc.","distributor":"Netflix","director":"Tien-Lun Yeh","writer":"Ling-Hui Chen, Nancy Chen, Chih-Chi Fan, Chia-Hui Lin","actor_1":"Tammy Cheng","actor_2":"Peggy Tseng","actor_3":"Shen-Hao Wen"},{"locations":"Bernal Heights Park","lat_lon":"37.7433416,-122.4161812","release_year":"2018","production_company":"Envision Productions Inc.","distributor":"Netflix","director":"Tien-Lun Yeh","writer":"Ling-Hui Chen, Nancy Chen, Chih-Chi Fan, Chia-Hui Lin","actor_1":"Tammy Cheng","actor_2":"Peggy Tseng","actor_3":"Shen-Hao Wen"},{"locations":"Pier 7","lat_lon":"37.7986599,-122.399004","release_year":"2018","production_company":"Envision Productions Inc.","distributor":"Netflix","director":"Tien-Lun Yeh","writer":"Ling-Hui Chen, Nancy Chen, Chih-Chi Fan, Chia-Hui Lin","actor_1":"Tammy Cheng","actor_2":"Peggy Tseng","actor_3":"Shen-Hao Wen"},{"locations":"San Francisco City Hall","lat_lon":"37.7796493,-122.4191953","release_year":"2018","production_company":"Envision Productions Inc.","distributor":"Netflix","director":"Tien-Lun Yeh","writer":"Ling-Hui Chen, Nancy Chen, Chih-Chi Fan, Chia-Hui Lin","actor_1":"Tammy Cheng","actor_2":"Peggy Tseng","actor_3":"Shen-Hao Wen"},{"locations":"738 Washington St","lat_lon":"37.7953309,-122.407953","release_year":"2018","production_company":"Envision Productions Inc.","distributor":"Netflix","director":"Tien-Lun Yeh","writer":"Ling-Hui Chen, Nancy Chen, Chih-Chi Fan, Chia-Hui Lin","actor_1":"Tammy Cheng","actor_2":"Peggy Tseng","actor_3":"Shen-Hao Wen"},{"locations":"Sutter St at Taylor St","lat_lon":"37.7888137,-122.414097","release_year":"2018","production_company":"Envision Productions Inc.","distributor":"Netflix","director":"Tien-Lun Yeh","writer":"Ling-Hui Chen, Nancy Chen, Chih-Chi Fan, Chia-Hui Lin","actor_1":"Tammy Cheng","actor_2":"Peggy Tseng","actor_3":"Shen-Hao Wen"},{"locations":"Castro Theatre, 429 Castro St.","lat_lon":"37.7620375,-122.4369478","release_year":"2018","production_company":"Envision Productions Inc.","distributor":"Netflix","director":"Tien-Lun Yeh","writer":"Ling-Hui Chen, Nancy Chen, Chih-Chi Fan, Chia-Hui Lin","actor_1":"Tammy Cheng","actor_2":"Peggy Tseng","actor_3":"Shen-Hao Wen"},{"locations":"Palace of Fine Arts (3301 Lyon Street)","lat_lon":"37.8020485,-122.4484604","release_year":"2018","production_company":"Envision Productions Inc.","distributor":"Netflix","director":"Tien-Lun Yeh","writer":"Ling-Hui Chen, Nancy Chen, Chih-Chi Fan, Chia-Hui Lin","actor_1":"Tammy Cheng","actor_2":"Peggy Tseng","actor_3":"Shen-Hao Wen"},{"locations":"Dolores Park","lat_lon":"37.7595861,-122.429097","release_year":"2018","production_company":"Envision Productions Inc.","distributor":"Netflix","director":"Tien-Lun Yeh","writer":"Ling-Hui Chen, Nancy Chen, Chih-Chi Fan, Chia-Hui Lin","actor_1":"Tammy Cheng","actor_2":"Peggy Tseng","actor_3":"Shen-Hao Wen"},{"locations":"Steiner St at Fulton St","lat_lon":"37.7775088,-122.4354376","release_year":"2018","production_company":"Envision Productions Inc.","distributor":"Netflix","director":"Tien-Lun Yeh","writer":"Ling-Hui Chen, Nancy Chen, Chih-Chi Fan, Chia-Hui Lin","actor_1":"Tammy Cheng","actor_2":"Peggy Tseng","actor_3":"Shen-Hao Wen"},{"locations":"Fulton St at Larkin St","lat_lon":"37.7795982,-122.4190164","release_year":"2018","production_company":"Envision Productions Inc.","distributor":"Netflix","director":"Tien-Lun Yeh","writer":"Ling-Hui Chen, Nancy Chen, Chih-Chi Fan, Chia-Hui Lin","actor_1":"Tammy Cheng","actor_2":"Peggy Tseng","actor_3":"Shen-Hao Wen"},{"locations":"Texas St at 19th St","lat_lon":"37.761375,-122.3976553","release_year":"2018","production_company":"Envision Productions Inc.","distributor":"Netflix","director":"Tien-Lun Yeh","writer":"Ling-Hui Chen, Nancy Chen, Chih-Chi Fan, Chia-Hui Lin","actor_1":"Tammy Cheng","actor_2":"Peggy Tseng","actor_3":"Shen-Hao Wen"},{"locations":"Waverly Place","lat_lon":"37.794213,-122.4090384","release_year":"2018","production_company":"Envision Productions Inc.","distributor":"Netflix","director":"Tien-Lun Yeh","writer":"Ling-Hui Chen, Nancy Chen, Chih-Chi Fan, Chia-Hui Lin","actor_1":"Tammy Cheng","actor_2":"Peggy Tseng","actor_3":"Shen-Hao Wen"},{"locations":"2751 Mission St","lat_lon":"37.7530814,-122.4205442","release_year":"2018","production_company":"Envision Productions Inc.","distributor":"Netflix","director":"Tien-Lun Yeh","writer":"Ling-Hui Chen, Nancy Chen, Chih-Chi Fan, Chia-Hui Lin","actor_1":"Tammy Cheng","actor_2":"Peggy Tseng","actor_3":"Shen-Hao Wen"},{"locations":"Civic Center Plaza","lat_lon":"37.7794744,-122.4198934","release_year":"2018","production_company":"Envision Productions Inc.","distributor":"Netflix","director":"Tien-Lun Yeh","writer":"Ling-Hui Chen, Nancy Chen, Chih-Chi Fan, Chia-Hui Lin","actor_1":"Tammy Cheng","actor_2":"Peggy Tseng","actor_3":"Shen-Hao Wen"},{"locations":"700 Block of Grant Ave.","lat_lon":"37.7934972,-122.4082055","release_year":"2018","production_company":"Envision Productions Inc.","distributor":"Netflix","director":"Tien-Lun Yeh","writer":"Ling-Hui Chen, Nancy Chen, Chih-Chi Fan, Chia-Hui Lin","actor_1":"Tammy Cheng","actor_2":"Peggy Tseng","actor_3":"Shen-Hao Wen"}]}
{"_id":{"$oid":"5e9e1a813483ea7ae2f71a77"},"title":"A View to a Kill","description":[{"locations":"Burger Island (901 3rd Street, China Basin)","lat_lon":"37.7776141,-122.3917602","release_year":"1985","production_company":"Metro-Goldwyn Mayer","distributor":"MGM/UA Entertainment Company","director":"John Glen","writer":"Richard Maibaum","actor_1":"Roger Moore","actor_2":"Christopher Walken","actor_3":"Tanya Roberts"},{"locations":"Golden Gate Bridge","lat_lon":"37.8199286,-122.4804438","release_year":"1985","fun_facts":"With 23 miles of ladders and 300,000 rivets in each tower, the Golden Gate Bridge was the world's longest span when it opened in 1937.","production_company":"Metro-Goldwyn Mayer","distributor":"MGM/UA Entertainment Company","director":"John Glen","writer":"Richard Maibaum","actor_1":"Roger Moore","actor_2":"Christopher Walken","actor_3":"Tanya Roberts"},{"locations":"Potrero Hill","lat_lon":"37.7582657,-122.4013887","release_year":"1985","fun_facts":"The most crooked street in San Francisco is actually Potrero Hill's Vermont Street between 20th St & 22nd St.","production_company":"Metro-Goldwyn Mayer","distributor":"MGM/UA Entertainment Company","director":"John Glen","writer":"Richard Maibaum","actor_1":"Roger Moore","actor_2":"Christopher Walken","actor_3":"Tanya Roberts"},{"locations":"Van Ness Avenue","lat_lon":"37.7915058,-122.424683","release_year":"1985","production_company":"Metro-Goldwyn Mayer","distributor":"MGM/UA Entertainment Company","director":"John Glen","writer":"Richard Maibaum","actor_1":"Roger Moore","actor_2":"Christopher Walken","actor_3":"Tanya Roberts"},{"locations":"City Hall","lat_lon":"37.7796493,-122.4191953","release_year":"1985","fun_facts":"The dome of SF's City Hall is almost a foot taller than that of the US Capitol Building. In 1954, Joe DiMaggio and Marilyn Monroe married at the Beaux Arts-style building.","production_company":"Metro-Goldwyn Mayer","distributor":"MGM/UA Entertainment Company","director":"John Glen","writer":"Richard Maibaum","actor_1":"Roger Moore","actor_2":"Christopher Walken","actor_3":"Tanya Roberts"},{"locations":"City Hall","lat_lon":"37.7796493,-122.4191953","release_year":"1985","fun_facts":"The dome of SF's City Hall is almost a foot taller than that of the US Capitol Building. In 1954, Joe DiMaggio and Marilyn Monroe married at the Beaux Arts-style building.","production_company":"Metro-Goldwyn Mayer","distributor":"MGM/UA Entertainment Company","director":"John Glen","writer":"Richard Maibaum","actor_1":"Roger Moore","actor_2":"Christopher Walken","actor_3":"Tanya Roberts"},{"locations":"Embarcadero Freeway","lat_lon":"37.7876159,-122.2517802","release_year":"1985","fun_facts":"Embarcadero Freeway, which was featured in the film, was demolished in 1989 because of structural damage from the 1989 Loma Prieta Earthquake)","production_company":"Metro-Goldwyn Mayer","distributor":"MGM/UA Entertainment Company","director":"John Glen","writer":"Richard Maibaum","actor_1":"Roger Moore","actor_2":"Christopher Walken","actor_3":"Tanya Roberts"},{"locations":"Port of San Francisco","lat_lon":"37.7960101,-122.3963116","release_year":"1985","production_company":"Metro-Goldwyn Mayer","distributor":"MGM/UA Entertainment Company","director":"John Glen","writer":"Richard Maibaum","actor_1":"Roger Moore","actor_2":"Christopher Walken","actor_3":"Tanya Roberts"},{"locations":"Taylor and Jefferson Streets (Fisherman's Wharf)","lat_lon":"37.8082256,-122.4179968","release_year":"1985","production_company":"Metro-Goldwyn Mayer","distributor":"MGM/UA Entertainment Company","director":"John Glen","writer":"Richard Maibaum","actor_1":"Roger Moore","actor_2":"Christopher Walken","actor_3":"Tanya Roberts"},{"locations":"Chinatown","lat_lon":"37.7860022,-122.4124268","release_year":"1985","fun_facts":"First established in the mid-19th Century, SF's Chinatown is the oldest and largest Chinatown in the US.","production_company":"Metro-Goldwyn Mayer","distributor":"MGM/UA Entertainment Company","director":"John Glen","writer":"Richard Maibaum","actor_1":"Roger Moore","actor_2":"Christopher Walken","actor_3":"Tanya Roberts"},{"locations":"Lefty O' Doul Drawbridge/ 3rd Street Bridge (3rd Street, China Basin)","lat_lon":"37.7765425,-122.3923212","release_year":"1985","fun_facts":"This is SF's only drawbridge, and was named after Francis Joseph \"Lefty\" O'Doul, a local baseball hero.","production_company":"Metro-Goldwyn Mayer","distributor":"MGM/UA Entertainment Company","director":"John Glen","writer":"Richard Maibaum","actor_1":"Roger Moore","actor_2":"Christopher Walken","actor_3":"Tanya Roberts"},{"locations":"Port of San Francisco","lat_lon":"37.7960101,-122.3963116","release_year":"1985","production_company":"Metro-Goldwyn Mayer","distributor":"MGM/UA Entertainment Company","director":"John Glen","writer":"Richard Maibaum","actor_1":"Roger Moore","actor_2":"Christopher Walken","actor_3":"Tanya Roberts"},{"locations":"Lefty O' Doul Drawbridge/ 3rd Street Bridge (3rd Street, China Basin)","lat_lon":"37.7765425,-122.3923212","release_year":"1985","fun_facts":"This is SF's only drawbridge, and was named after Francis Joseph \"Lefty\" O'Doul, a local baseball hero.","production_company":"Metro-Goldwyn Mayer","distributor":"MGM/UA Entertainment Company","director":"John Glen","writer":"Richard Maibaum","actor_1":"Roger Moore","actor_2":"Christopher Walken","actor_3":"Tanya Roberts"},{"locations":"Chinatown","lat_lon":"37.7860022,-122.4124268","release_year":"1985","fun_facts":"First established in the mid-19th Century, SF's Chinatown is the oldest and largest Chinatown in the US.","production_company":"Metro-Goldwyn Mayer","distributor":"MGM/UA Entertainment Company","director":"John Glen","writer":"Richard Maibaum","actor_1":"Roger Moore","actor_2":"Christopher Walken","actor_3":"Tanya Roberts"},{"locations":"Taylor and Jefferson Streets (Fisherman's Wharf)","lat_lon":"37.8082256,-122.4179968","release_year":"1985","production_company":"Metro-Goldwyn Mayer","distributor":"MGM/UA Entertainment Company","director":"John Glen","writer":"Richard Maibaum","actor_1":"Roger Moore","actor_2":"Christopher Walken","actor_3":"Tanya Roberts"},{"locations":"Embarcadero Freeway","lat_lon":"37.7876159,-122.2517802","release_year":"1985","fun_facts":"Embarcadero Freeway, which was featured in the film, was demolished in 1989 because of structural damage from the 1989 Loma Prieta Earthquake)","production_company":"Metro-Goldwyn Mayer","distributor":"MGM/UA Entertainment Company","director":"John Glen","writer":"Richard Maibaum","actor_1":"Roger Moore","actor_2":"Christopher Walken","actor_3":"Tanya Roberts"},{"locations":"City Hall","lat_lon":"37.7796493,-122.4191953","release_year":"1985","fun_facts":"The dome of SF's City Hall is almost a foot taller than that of the US Capitol Building. In 1954, Joe DiMaggio and Marilyn Monroe married at the Beaux Arts-style building.","production_company":"Metro-Goldwyn Mayer","distributor":"MGM/UA Entertainment Company","director":"John Glen","writer":"Richard Maibaum","actor_1":"Roger Moore","actor_2":"Christopher Walken","actor_3":"Tanya Roberts"},{"locations":"City Hall","lat_lon":"37.7796493,-122.4191953","release_year":"1985","fun_facts":"The dome of SF's City Hall is almost a foot taller than that of the US Capitol Building. In 1954, Joe DiMaggio and Marilyn Monroe married at the Beaux Arts-style building.","production_company":"Metro-Goldwyn Mayer","distributor":"MGM/UA Entertainment Company","director":"John Glen","writer":"Richard Maibaum","actor_1":"Roger Moore","actor_2":"Christopher Walken","actor_3":"Tanya Roberts"},{"locations":"Van Ness Avenue","lat_lon":"37.7915058,-122.424683","release_year":"1985","production_company":"Metro-Goldwyn Mayer","distributor":"MGM/UA Entertainment Company","director":"John Glen","writer":"Richard Maibaum","actor_1":"Roger Moore","actor_2":"Christopher Walken","actor_3":"Tanya Roberts"},{"locations":"Potrero Hill","lat_lon":"37.7582657,-122.4013887","release_year":"1985","fun_facts":"The most crooked street in San Francisco is actually Potrero Hill's Vermont Street between 20th St & 22nd St.","production_company":"Metro-Goldwyn Mayer","distributor":"MGM/UA Entertainment Company","director":"John Glen","writer":"Richard Maibaum","actor_1":"Roger Moore","actor_2":"Christopher Walken","actor_3":"Tanya Roberts"},{"locations":"Golden Gate Bridge","lat_lon":"37.8199286,-122.4804438","release_year":"1985","fun_facts":"With 23 miles of ladders and 300,000 rivets in each tower, the Golden Gate Bridge was the world's longest span when it opened in 1937.","production_company":"Metro-Goldwyn Mayer","distributor":"MGM/UA Entertainment Company","director":"John Glen","writer":"Richard Maibaum","actor_1":"Roger Moore","actor_2":"Christopher Walken","actor_3":"Tanya Roberts"},{"locations":"Burger Island (901 3rd Street, China Basin)","lat_lon":"37.7776141,-122.3917602","release_year":"1985","production_company":"Metro-Goldwyn Mayer","distributor":"MGM/UA Entertainment Company","director":"John Glen","writer":"Richard Maibaum","actor_1":"Roger Moore","actor_2":"Christopher Walken","actor_3":"Tanya Roberts"}]}
{"_id":{"$oid":"5e9e1a813483ea7ae2f71a78"},"title":"About a Boy","description":[{"locations":"Broderick from Fulton to McAlister","lat_lon":"37.7771838,-122.4422049","release_year":"2014","production_company":"NBC Studios","distributor":"National Broadcasting Company","director":"Mark J. Kunerth","writer":"Jason Katims","actor_1":"David Walton","actor_2":"Minnie Driver"},{"locations":"Powell from Bush and Sutter","lat_lon":"37.7900744,-122.4098659","release_year":"2014","production_company":"NBC Studios","distributor":"National Broadcasting Company","director":"Mark J. Kunerth","writer":"Jason Katims","actor_1":"David Walton","actor_2":"Minnie Driver"},{"locations":"Crissy Field","lat_lon":"37.8053211,-122.4638979","release_year":"2014","production_company":"NBC Studios","distributor":"National Broadcasting Company","director":"Mark J. Kunerth","writer":"Jason Katims","actor_1":"David Walton","actor_2":"Minnie Driver"},{"locations":"Broderick from Fulton to McAlister","lat_lon":"37.7771838,-122.4422049","release_year":"2014","production_company":"NBC Studios","distributor":"National Broadcasting Company","director":"Mark J. Kunerth","writer":"Jason Katims","actor_1":"David Walton","actor_2":"Minnie Driver"},{"locations":"Crissy Field","lat_lon":"37.8053211,-122.4638979","release_year":"2014","production_company":"NBC Studios","distributor":"National Broadcasting Company","director":"Mark J. Kunerth","writer":"Jason Katims","actor_1":"David Walton","actor_2":"Minnie Driver"},{"locations":"Powell from Bush and Sutter","lat_lon":"37.7900744,-122.4098659","release_year":"2014","production_company":"NBC Studios","distributor":"National Broadcasting Company","director":"Mark J. Kunerth","writer":"Jason Katims","actor_1":"David Walton","actor_2":"Minnie Driver"}]}
{"_id":{"$oid":"5e9e1a813483ea7ae2f71a79"},"title":"After the Thin Man","description":[{"locations":"Coit Tower","lat_lon":"37.8023991,-122.4080109","release_year":"1936","fun_facts":"The Tower was funded by a gift bequeathed by Lillie Hitchcock Coit, a socialite who reportedly liked to chase fires. Though the tower resembles a firehose nozzle, it was not designed this way.","production_company":"Metro-Goldwyn Mayer","distributor":"Metro-Goldwyn Mayer","director":"W.S. Van Dyke","writer":"Frances Goodrich","actor_1":"William Powell","actor_2":"Myrna Loy","actor_3":"James Stewart"},{"locations":"Coit Tower","lat_lon":"37.8023991,-122.4080109","release_year":"1936","fun_facts":"The Tower was funded by a gift bequeathed by Lillie Hitchcock Coit, a socialite who reportedly liked to chase fires. Though the tower resembles a firehose nozzle, it was not designed this way.","production_company":"Metro-Goldwyn Mayer","distributor":"Metro-Goldwyn Mayer","director":"W.S. Van Dyke","writer":"Frances Goodrich","actor_1":"William Powell","actor_2":"Myrna Loy","actor_3":"James Stewart"}]}
{"_id":{"$oid":"5e9e1a813483ea7ae2f71a7a"},"title":"Age of Adaline","description":[{"locations":"Driving various SF Streets","lat_lon":"37.7748604,-122.4118255","release_year":"2015","production_company":"Lionsgate / Sidney Kimmel Entertainment / Lakeshore Entertainment","director":"Lee Toland Krieger","writer":"J. Mills Goodloe","actor_1":"Blake Lively","actor_2":"Harrison Ford","actor_3":"Ellen Burstyn"},{"locations":"Montgomery/Green","lat_lon":"37.800082,-122.4064477","release_year":"2015","production_company":"Lionsgate / Sidney Kimmel Entertainment / Lakeshore Entertainment","director":"Lee Toland Krieger","writer":"J. Mills Goodloe","actor_1":"Blake Lively","actor_2":"Harrison Ford","actor_3":"Ellen Burstyn"},{"locations":"California @ Montgomery","lat_lon":"37.78941,-122.4033004","release_year":"2015","production_company":"Lionsgate / Sidney Kimmel Entertainment / Lakeshore Entertainment","director":"Lee Toland Krieger","writer":"J. Mills Goodloe","actor_1":"Blake Lively","actor_2":"Harrison Ford","actor_3":"Ellen Burstyn"},{"locations":"Pier 50- end of the pier","lat_lon":"37.7738221,-122.3865327","release_year":"2015","production_company":"Lionsgate / Sidney Kimmel Entertainment / Lakeshore Entertainment","director":"Lee Toland Krieger","writer":"J. Mills Goodloe","actor_1":"Blake Lively","actor_2":"Harrison Ford","actor_3":"Ellen Burstyn"},{"locations":"Plate Shots SF streets various","lat_lon":"37.779275,-122.4214304","release_year":"2015","production_company":"Lionsgate / Sidney Kimmel Entertainment / Lakeshore Entertainment","director":"Lee Toland Krieger","writer":"J. Mills Goodloe","actor_1":"Blake Lively","actor_2":"Harrison Ford","actor_3":"Ellen Burstyn"},{"locations":"Pier 50- end of the pier","lat_lon":"37.7738221,-122.3865327","release_year":"2015","production_company":"Lionsgate / Sidney Kimmel Entertainment / Lakeshore Entertainment","director":"Lee Toland Krieger","writer":"J. Mills Goodloe","actor_1":"Blake Lively","actor_2":"Harrison Ford","actor_3":"Ellen Burstyn"},{"locations":"California @ Montgomery","lat_lon":"37.78941,-122.4033004","release_year":"2015","production_company":"Lionsgate / Sidney Kimmel Entertainment / Lakeshore Entertainment","director":"Lee Toland Krieger","writer":"J. Mills Goodloe","actor_1":"Blake Lively","actor_2":"Harrison Ford","actor_3":"Ellen Burstyn"},{"locations":"Montgomery/Green","lat_lon":"37.800082,-122.4064477","release_year":"2015","production_company":"Lionsgate / Sidney Kimmel Entertainment / Lakeshore Entertainment","director":"Lee Toland Krieger","writer":"J. Mills Goodloe","actor_1":"Blake Lively","actor_2":"Harrison Ford","actor_3":"Ellen Burstyn"},{"locations":"Driving various SF Streets","lat_lon":"37.7748604,-122.4118255","release_year":"2015","production_company":"Lionsgate / Sidney Kimmel Entertainment / Lakeshore Entertainment","director":"Lee Toland Krieger","writer":"J. Mills Goodloe","actor_1":"Blake Lively","actor_2":"Harrison Ford","actor_3":"Ellen Burstyn"},{"locations":"Plate Shots SF streets various","lat_lon":"37.779275,-122.4214304","release_year":"2015","production_company":"Lionsgate / Sidney Kimmel Entertainment / Lakeshore Entertainment","director":"Lee Toland Krieger","writer":"J. Mills Goodloe","actor_1":"Blake Lively","actor_2":"Harrison Ford","actor_3":"Ellen Burstyn"}]}
{"_id":{"$oid":"5e9e1a813483ea7ae2f71a7b"},"title":"Alcatraz","description":[{"locations":"Chestnut St. from Larkin to Columbus","lat_lon":"37.7996813,-122.418545","release_year":"2012","production_company":"Bonanza Productions Inc.","distributor":"Warner Bros. Television","director":"J.J. Abrams","writer":"Steven Lilien","actor_1":"Sarah Jones","actor_2":"Jorge Garcia"},{"locations":"Taylor St. from Broadway to Filbert","lat_lon":"37.7993016,-122.4142479","release_year":"2012","production_company":"Bonanza Productions Inc.","distributor":"Warner Bros. Television","director":"J.J. Abrams","writer":"Steven Lilien","actor_1":"Sarah Jones","actor_2":"Jorge Garcia"},{"locations":"Francisco St from Larkin to Polk","lat_lon":"37.8035283,-122.4216499","release_year":"2012","production_company":"Bonanza Productions Inc.","distributor":"Warner Bros. Television","director":"J.J. Abrams","writer":"Steven Lilien","actor_1":"Sarah Jones","actor_2":"Jorge Garcia"},{"locations":"Broadway from Mason to Taylor","lat_lon":"37.7970915,-122.4135596","release_year":"2012","production_company":"Bonanza Productions Inc.","distributor":"Warner Bros. Television","director":"J.J. Abrams","writer":"Steven Lilien","actor_1":"Sarah Jones","actor_2":"Jorge Garcia"},{"locations":"Leavenworth from Filbert & Francisco St","lat_lon":"37.79369,-122.4274763","release_year":"2012","production_company":"Bonanza Productions Inc.","distributor":"Warner Bros. Television","director":"J.J. Abrams","writer":"Steven Lilien","actor_1":"Sarah Jones","actor_2":"Jorge Garcia"},{"locations":"Filbert St. from Jones to Mason","lat_lon":"37.8009656,-122.4128015","release_year":"2012","production_company":"Bonanza Productions Inc.","distributor":"Warner Bros. Television","director":"J.J. Abrams","writer":"Steven Lilien","actor_1":"Sarah Jones","actor_2":"Jorge Garcia"},{"locations":"Filbert St. from Jones to Mason","lat_lon":"37.8009656,-122.4128015","release_year":"2012","production_company":"Bonanza Productions Inc.","distributor":"Warner Bros. Television","director":"J.J. Abrams","writer":"Steven Lilien","actor_1":"Sarah Jones","actor_2":"Jorge Garcia"},{"locations":"Leavenworth from Filbert & Francisco St","lat_lon":"37.79369,-122.4274763","release_year":"2012","production_company":"Bonanza Productions Inc.","distributor":"Warner Bros. Television","director":"J.J. Abrams","writer":"Steven Lilien","actor_1":"Sarah Jones","actor_2":"Jorge Garcia"},{"locations":"Broadway from Mason to Taylor","lat_lon":"37.7970915,-122.4135596","release_year":"2012","production_company":"Bonanza Productions Inc.","distributor":"Warner Bros. Television","director":"J.J. Abrams","writer":"Steven Lilien","actor_1":"Sarah Jones","actor_2":"Jorge Garcia"},{"locations":"Francisco St from Larkin to Polk","lat_lon":"37.8035283,-122.4216499","release_year":"2012","production_company":"Bonanza Productions Inc.","distributor":"Warner Bros. Television","director":"J.J. Abrams","writer":"Steven Lilien","actor_1":"Sarah Jones","actor_2":"Jorge Garcia"},{"locations":"Taylor St. from Broadway to Filbert","lat_lon":"37.7993016,-122.4142479","release_year":"2012","production_company":"Bonanza Productions Inc.","distributor":"Warner Bros. Television","director":"J.J. Abrams","writer":"Steven Lilien","actor_1":"Sarah Jones","actor_2":"Jorge Garcia"},{"locations":"Chestnut St. from Larkin to Columbus","lat_lon":"37.7996813,-122.418545","release_year":"2012","production_company":"Bonanza Productions Inc.","distributor":"Warner Bros. Television","director":"J.J. Abrams","writer":"Steven Lilien","actor_1":"Sarah Jones","actor_2":"Jorge Garcia"}]}
{"_id":{"$oid":"5e9e1a813483ea7ae2f71a7c"},"title":"Alexander's Ragtime Band","description":[{"locations":"Fairmont Hotel (950 Mason Street, Nob Hill)","lat_lon":"37.791544, -122.410854","release_year":"1938","fun_facts":"In 1945 the Fairmont hosted the United Nations Conference on International Organization as delegates arrived to draft a charter for the organization. The U.S. Secretary of State, Edward Stettinius drafted the charter in the hotel's Garden Room.","production_company":"Twentieth Century Fox Film Corporation","distributor":"Twentieth Century Fox Film Corporation","director":"Henry King","writer":"Kathryn Scola","actor_1":"Tyrone Power","actor_2":"Alice Faye","actor_3":"Don Ameche"},{"locations":"Cliff House (1090 Point Lobos Avenue)","lat_lon":"37.7785112,-122.5161695","release_year":"1938","fun_facts":"In 1887, the Cliff House was severely damaged when the schooner Parallel, abandoned and loaded with dynamite, ran aground on the rocks below.","production_company":"Twentieth Century Fox Film Corporation","distributor":"Twentieth Century Fox Film Corporation","director":"Henry King","writer":"Kathryn Scola","actor_1":"Tyrone Power","actor_2":"Alice Faye","actor_3":"Don Ameche"},{"locations":"San Francisco Bay","lat_lon":"37.7943586,-122.5600484","release_year":"1938","production_company":"Twentieth Century Fox Film Corporation","distributor":"Twentieth Century Fox Film Corporation","director":"Henry King","writer":"Kathryn Scola","actor_1":"Tyrone Power","actor_2":"Alice Faye","actor_3":"Don Ameche"},{"locations":"San Francisco Bay","lat_lon":"37.7943586,-122.5600484","release_year":"1938","production_company":"Twentieth Century Fox Film Corporation","distributor":"Twentieth Century Fox Film Corporation","director":"Henry King","writer":"Kathryn Scola","actor_1":"Tyrone Power","actor_2":"Alice Faye","actor_3":"Don Ameche"},{"locations":"Cliff House (1090 Point Lobos Avenue)","lat_lon":"37.7785112,-122.5161695","release_year":"1938","fun_facts":"In 1887, the Cliff House was severely damaged when the schooner Parallel, abandoned and loaded with dynamite, ran aground on the rocks below.","production_company":"Twentieth Century Fox Film Corporation","distributor":"Twentieth Century Fox Film Corporation","director":"Henry King","writer":"Kathryn Scola","actor_1":"Tyrone Power","actor_2":"Alice Faye","actor_3":"Don Ameche"},{"locations":"Fairmont Hotel (950 Mason Street, Nob Hill)","lat_lon":"37.791544, -122.410854","release_year":"1938","fun_facts":"In 1945 the Fairmont hosted the United Nations Conference on International Organization as delegates arrived to draft a charter for the organization. The U.S. Secretary of State, Edward Stettinius drafted the charter in the hotel's Garden Room.","production_company":"Twentieth Century Fox Film Corporation","distributor":"Twentieth Century Fox Film Corporation","director":"Henry King","writer":"Kathryn Scola","actor_1":"Tyrone Power","actor_2":"Alice Faye","actor_3":"Don Ameche"}]}
{"_id":{"$oid":"5e9e1a813483ea7ae2f71a7d"},"title":"All About Eve","description":[{"locations":"Curran Theater (445 Geary Street)","lat_lon":"37.7869708,-122.4127558","release_year":"1950","fun_facts":"Called the Shubert Theatre in the film.","production_company":"Twentieth Century Fox Film Corp.","distributor":"Twentieth Century Fox Film Corp.","director":"Joseph L. Mankiewicz","writer":"Joseph L. Mankiewicz","actor_1":"Bette Davis","actor_2":"Anne Baxter","actor_3":"George Sanders"},{"locations":"Curran Theater (445 Geary Street)","lat_lon":"37.7869708,-122.4127558","release_year":"1950","fun_facts":"Called the Shubert Theatre in the film.","production_company":"Twentieth Century Fox Film Corp.","distributor":"Twentieth Century Fox Film Corp.","director":"Joseph L. Mankiewicz","writer":"Joseph L. Mankiewicz","actor_1":"Bette Davis","actor_2":"Anne Baxter","actor_3":"George Sanders"}]}
{"_id":{"$oid":"5e9e1a813483ea7ae2f71a7e"},"title":"Always Be My Maybe","description":[{"locations":"Pier 7","lat_lon":"37.7986599,-122.399004","release_year":"2019","production_company":"Isla Productions, LLC","distributor":"Netflix","director":"Nahnatchka Khan","writer":"Michael Golamco, Randall Park, Ali Wong","actor_1":"Ali Wong","actor_2":"Randall Park","actor_3":"Keanu Reeves"},{"locations":"Haight St at Masonic","lat_lon":"37.7702276,-122.4475563","release_year":"2019","production_company":"Isla Productions, LLC","distributor":"Netflix","director":"Nahnatchka Khan","writer":"Michael Golamco, Randall Park, Ali Wong","actor_1":"Ali Wong","actor_2":"Randall Park","actor_3":"Keanu Reeves"},{"locations":"Pier 45 - Musee Mechanique","lat_lon":"37.8093037,-122.4181571","release_year":"2019","production_company":"Isla Productions, LLC","distributor":"Netflix","director":"Nahnatchka Khan","writer":"Michael Golamco, Randall Park, Ali Wong","actor_1":"Ali Wong","actor_2":"Randall Park","actor_3":"Keanu Reeves"},{"locations":"de Young Museum/Golden Gate Park","lat_lon":"37.7714732,-122.4708642","release_year":"2019","production_company":"Isla Productions, LLC","distributor":"Netflix","director":"Nahnatchka Khan","writer":"Michael Golamco, Randall Park, Ali Wong","actor_1":"Ali Wong","actor_2":"Randall Park","actor_3":"Keanu Reeves"},{"locations":"19th Ave Home","lat_lon":"37.7505216,-122.4783146","release_year":"2019","production_company":"Isla Productions, LLC","distributor":"Netflix","director":"Nahnatchka Khan","writer":"Michael Golamco, Randall Park, Ali Wong","actor_1":"Ali Wong","actor_2":"Randall Park","actor_3":"Keanu Reeves"},{"locations":"Golden Gate Music Concourse","lat_lon":"37.8013562,-122.5041522","release_year":"2019","production_company":"Isla Productions, LLC","distributor":"Netflix","director":"Nahnatchka Khan","writer":"Michael Golamco, Randall Park, Ali Wong","actor_1":"Ali Wong","actor_2":"Randall Park","actor_3":"Keanu Reeves"},{"locations":"Contemporary Jewish Museum","lat_lon":"37.7860026,-122.4058607","release_year":"2019","fun_facts":"When Sasha, Keanu, Jenny and Marcus go for dinner together, the restaurant (known in the film as \"maximal\") is actually San Francisco's Contemporary Jewish Museum.","production_company":"Isla Productions, LLC","distributor":"Netflix","director":"Nahnatchka Khan","writer":"Michael Golamco, Randall Park, Ali Wong","actor_1":"Ali Wong","actor_2":"Randall Park","actor_3":"Keanu Reeves"},{"locations":"26th Ave and El Camino Del mar","lat_lon":"37.787573,-122.488551","release_year":"2019","production_company":"Isla Productions, LLC","distributor":"Netflix","director":"Nahnatchka Khan","writer":"Michael Golamco, Randall Park, Ali Wong","actor_1":"Ali Wong","actor_2":"Randall Park","actor_3":"Keanu Reeves"},{"locations":"Trax Bar, Haight St","lat_lon":"37.7700042,-122.4482998","release_year":"2019","production_company":"Isla Productions, LLC","distributor":"Netflix","director":"Nahnatchka Khan","writer":"Michael Golamco, Randall Park, Ali Wong","actor_1":"Ali Wong","actor_2":"Randall Park","actor_3":"Keanu Reeves"},{"locations":"22nd Ave Home","lat_lon":"37.7406622,-122.4806067","release_year":"2019","production_company":"Isla Productions, LLC","distributor":"Netflix","director":"Nahnatchka Khan","writer":"Michael Golamco, Randall Park, Ali Wong","actor_1":"Ali Wong","actor_2":"Randall Park","actor_3":"Keanu Reeves"},{"locations":"Palace of Fine Arts (3301 Lyon Street)","lat_lon":"37.8020485,-122.4484604","release_year":"2019","production_company":"Isla Productions, LLC","distributor":"Netflix","director":"Nahnatchka Khan","writer":"Michael Golamco, Randall Park, Ali Wong","actor_1":"Ali Wong","actor_2":"Randall Park","actor_3":"Keanu Reeves"},{"locations":"California Cable Car Line","lat_lon":"37.7919706,-122.4181587","release_year":"2019","production_company":"Isla Productions, LLC","distributor":"Netflix","director":"Nahnatchka Khan","writer":"Michael Golamco, Randall Park, Ali Wong","actor_1":"Ali Wong","actor_2":"Randall Park","actor_3":"Keanu Reeves"},{"locations":"Fort Point (Presidio, Golden Gate National Recreation Area)","lat_lon":"37.820722,-122.4904672","release_year":"2019","production_company":"Isla Productions, LLC","distributor":"Netflix","director":"Nahnatchka Khan","writer":"Michael Golamco, Randall Park, Ali Wong","actor_1":"Ali Wong","actor_2":"Randall Park","actor_3":"Keanu Reeves"},{"locations":"Kearny btwn Columbus and Washington","lat_lon":"37.7960751,-122.4056852","release_year":"2019","production_company":"Isla Productions, LLC","distributor":"Netflix","director":"Nahnatchka Khan","writer":"Michael Golamco, Randall Park, Ali Wong","actor_1":"Ali Wong","actor_2":"Randall Park","actor_3":"Keanu Reeves"},{"locations":"Fairmont Hotel - Penthouse Suite","lat_lon":"37.7923043,-122.410078","release_year":"2019","fun_facts":"Keanu Reeves' penthouse suite scenes were filmed at San Francisco's Fairmont Hotel.","production_company":"Isla Productions, LLC","distributor":"Netflix","director":"Nahnatchka Khan","writer":"Michael Golamco, Randall Park, Ali Wong","actor_1":"Ali Wong","actor_2":"Randall Park","actor_3":"Keanu Reeves"},{"locations":"717 Grant Ave","lat_lon":"37.7936586,-122.4085862","release_year":"2019","production_company":"Isla Productions, LLC","distributor":"Netflix","director":"Nahnatchka Khan","writer":"Michael Golamco, Randall Park, Ali Wong","actor_1":"Ali Wong","actor_2":"Randall Park","actor_3":"Keanu Reeves"},{"locations":"Heart of the City Farmers Market at UN Plaza","lat_lon":"37.7798241,-122.4168502","release_year":"2019","production_company":"Isla Productions, LLC","distributor":"Netflix","director":"Nahnatchka Khan","writer":"Michael Golamco, Randall Park, Ali Wong","actor_1":"Ali Wong","actor_2":"Randall Park","actor_3":"Keanu Reeves"}]}
{"_id":{"$oid":"5e9e1a813483ea7ae2f71a7f"},"title":"American Graffiti","description":[{"locations":"3355 Geary Blvd.","lat_lon":"37.7811289,-122.457028","release_year":"1973","production_company":"Universal Pictures","distributor":"Universal Pictures'","director":"George Lucas","writer":"George Lucas","actor_1":"Richard Dreyfuss","actor_2":"Ron Howard","actor_3":"Paul Le Mat"},{"locations":"Mel's Drive-In (Corner of Van Ness & Mission Street, Mission District)","lat_lon":"37.7831504,-122.4063929","release_year":"1973","fun_facts":"This restaurant location was demolished; however another Mel's was reopened in 1986 on 3355 Geary Blvd.","production_company":"Universal Pictures","distributor":"Universal Pictures'","director":"George Lucas","writer":"George Lucas","actor_1":"Richard Dreyfuss","actor_2":"Ron Howard","actor_3":"Paul Le Mat"},{"locations":"Mel's Drive-In (Corner of Van Ness & Mission Street, Mission District)","lat_lon":"37.7831504,-122.4063929","release_year":"1973","fun_facts":"This restaurant location was demolished; however another Mel's was reopened in 1986 on 3355 Geary Blvd.","production_company":"Universal Pictures","distributor":"Universal Pictures'","director":"George Lucas","writer":"George Lucas","actor_1":"Richard Dreyfuss","actor_2":"Ron Howard","actor_3":"Paul Le Mat"},{"locations":"3355 Geary Blvd.","lat_lon":"37.7811289,-122.457028","release_year":"1973","production_company":"Universal Pictures","distributor":"Universal Pictures'","director":"George Lucas","writer":"George Lucas","actor_1":"Richard Dreyfuss","actor_2":"Ron Howard","actor_3":"Paul Le Mat"}]}
{"_id":{"$oid":"5e9e1a813483ea7ae2f71a80"},"title":"American Yearbook","description":[{"release_year":"2004","production_company":"All Planet Studios","distributor":"N/A","director":"Brian Ging","writer":"Brian Ging","actor_1":"Nick Tagas","actor_2":"Jon Carlo Alvarez"},{"release_year":"2004","production_company":"All Planet Studios","distributor":"N/A","director":"Brian Ging","writer":"Brian Ging","actor_1":"Nick Tagas","actor_2":"Jon Carlo Alvarez"}]}
{"_id":{"$oid":"5e9e1a813483ea7ae2f71a81"},"title":"Americana","description":[{"locations":"Roxie Theater (3117 16th St.)","lat_lon":"37.7646242,-122.4246137","release_year":"2015","production_company":"Sutro Films LLC","director":"Zachary Shedd","writer":"Zachary Shedd","actor_1":"Kelli Garner","actor_2":"Jack Davenport","actor_3":"Peter Coyote"},{"locations":"St. Francis Episcopal Church (399 San Fernando Way)","lat_lon":"37.7303218,-122.4720025","release_year":"2015","production_company":"Sutro Films LLC","director":"Zachary Shedd","writer":"Zachary Shedd","actor_1":"Kelli Garner","actor_2":"Jack Davenport","actor_3":"Peter Coyote"},{"locations":"679 Madrid St","lat_lon":"37.7187499,-122.4369172","release_year":"2015","production_company":"Sutro Films LLC","director":"Zachary Shedd","writer":"Zachary Shedd","actor_1":"Kelli Garner","actor_2":"Jack Davenport","actor_3":"Peter Coyote"},{"locations":"The San Francisco School (300 Gavin St.)","lat_lon":"37.7327859,-122.4135421","release_year":"2015","production_company":"Sutro Films LLC","director":"Zachary Shedd","writer":"Zachary Shedd","actor_1":"Kelli Garner","actor_2":"Jack Davenport","actor_3":"Peter Coyote"},{"locations":"Variety Preview Room (582 Market St.)","lat_lon":"37.7894681,-122.4038097","release_year":"2015","production_company":"Sutro Films LLC","director":"Zachary Shedd","writer":"Zachary Shedd","actor_1":"Kelli Garner","actor_2":"Jack Davenport","actor_3":"Peter Coyote"},{"locations":"33 Spruce St","lat_lon":"37.790343,-122.4566001","release_year":"2015","production_company":"Sutro Films LLC","director":"Zachary Shedd","writer":"Zachary Shedd","actor_1":"Kelli Garner","actor_2":"Jack Davenport","actor_3":"Peter Coyote"},{"locations":"Treasure Island","lat_lon":"37.8201475,-122.3864967","release_year":"2015","production_company":"Sutro Films LLC","director":"Zachary Shedd","writer":"Zachary Shedd","actor_1":"Kelli Garner","actor_2":"Jack Davenport","actor_3":"Peter Coyote"},{"locations":"Laguna Honda Hospital; 375 Laguna Honda Blvd.","lat_lon":"37.7490613,-122.4590734","release_year":"2015","production_company":"Sutro Films LLC","director":"Zachary Shedd","writer":"Zachary Shedd","actor_1":"Kelli Garner","actor_2":"Jack Davenport","actor_3":"Peter Coyote"},{"locations":"John Shelley Drive John McLaren Park","lat_lon":"37.7223266,-122.4204317","release_year":"2015","production_company":"Sutro Films LLC","director":"Zachary Shedd","writer":"Zachary Shedd","actor_1":"Kelli Garner","actor_2":"Jack Davenport","actor_3":"Peter Coyote"},{"locations":"Jackson St. at Spruce","lat_lon":"37.7899861,-122.4563239","release_year":"2015","production_company":"Sutro Films LLC","director":"Zachary Shedd","writer":"Zachary Shedd","actor_1":"Kelli Garner","actor_2":"Jack Davenport","actor_3":"Peter Coyote"},{"locations":"Palace of Fine Arts","lat_lon":"37.8020068,-122.4507942","release_year":"2015","production_company":"Sutro Films LLC","director":"Zachary Shedd","writer":"Zachary Shedd","actor_1":"Kelli Garner","actor_2":"Jack Davenport","actor_3":"Peter Coyote"},{"locations":"Foreign Cinema (2534 Mission)","lat_lon":"37.7563872,-122.4201868","release_year":"2015","production_company":"Sutro Films LLC","director":"Zachary Shedd","writer":"Zachary Shedd","actor_1":"Kelli Garner","actor_2":"Jack Davenport","actor_3":"Peter Coyote"},{"locations":"Coi Restaurant (373 Broadway)","lat_lon":"37.7980566,-122.4055993","release_year":"2015","production_company":"Sutro Films LLC","director":"Zachary Shedd","writer":"Zachary Shedd","actor_1":"Kelli Garner","actor_2":"Jack Davenport","actor_3":"Peter Coyote"},{"locations":"Bernal Heights Park","lat_lon":"37.7433416,-122.4161812","release_year":"2015","production_company":"Sutro Films LLC","director":"Zachary Shedd","writer":"Zachary Shedd","actor_1":"Kelli Garner","actor_2":"Jack Davenport","actor_3":"Peter Coyote"},{"locations":"20th St and Illinois/Faxon St. and Kenwood/Glenbrook at Mt. Springs","lat_lon":"37.7605644,-122.3897781","release_year":"2015","production_company":"Sutro Films LLC","director":"Zachary Shedd","writer":"Zachary Shedd","actor_1":"Kelli Garner","actor_2":"Jack Davenport","actor_3":"Peter Coyote"},{"locations":"3232 Jackson Ave.","lat_lon":"37.7908904,-122.4509693","release_year":"2015","production_company":"Sutro Films LLC","director":"Zachary Shedd","writer":"Zachary Shedd","actor_1":"Kelli Garner","actor_2":"Jack Davenport","actor_3":"Peter Coyote"},{"locations":"Romolo Place @ Fresno St.","lat_lon":"37.7986055,-122.4085852","release_year":"2015","production_company":"Sutro Films LLC","director":"Zachary Shedd","writer":"Zachary Shedd","actor_1":"Kelli Garner","actor_2":"Jack Davenport","actor_3":"Peter Coyote"},{"locations":"St. Francis Episcopal Church (399 San Fernando Way)","lat_lon":"37.7303218,-122.4720025","release_year":"2015","production_company":"Sutro Films LLC","director":"Zachary Shedd","writer":"Zachary Shedd","actor_1":"Kelli Garner","actor_2":"Jack Davenport","actor_3":"Peter Coyote"},{"locations":"Romolo Place @ Fresno St.","lat_lon":"37.7986055,-122.4085852","release_year":"2015","production_company":"Sutro Films LLC","director":"Zachary Shedd","writer":"Zachary Shedd","actor_1":"Kelli Garner","actor_2":"Jack Davenport","actor_3":"Peter Coyote"},{"locations":"Palace of Fine Arts","lat_lon":"37.8020068,-122.4507942","release_year":"2015","production_company":"Sutro Films LLC","director":"Zachary Shedd","writer":"Zachary Shedd","actor_1":"Kelli Garner","actor_2":"Jack Davenport","actor_3":"Peter Coyote"},{"locations":"John Shelley Drive John McLaren Park","lat_lon":"37.7223266,-122.4204317","release_year":"2015","production_company":"Sutro Films LLC","director":"Zachary Shedd","writer":"Zachary Shedd","actor_1":"Kelli Garner","actor_2":"Jack Davenport","actor_3":"Peter Coyote"},{"locations":"Treasure Island","lat_lon":"37.8201475,-122.3864967","release_year":"2015","production_company":"Sutro Films LLC","director":"Zachary Shedd","writer":"Zachary Shedd","actor_1":"Kelli Garner","actor_2":"Jack Davenport","actor_3":"Peter Coyote"},{"locations":"The San Francisco School (300 Gavin St.)","lat_lon":"37.7327859,-122.4135421","release_year":"2015","production_company":"Sutro Films LLC","director":"Zachary Shedd","writer":"Zachary Shedd","actor_1":"Kelli Garner","actor_2":"Jack Davenport","actor_3":"Peter Coyote"},{"locations":"33 Spruce St","lat_lon":"37.790343,-122.4566001","release_year":"2015","production_company":"Sutro Films LLC","director":"Zachary Shedd","writer":"Zachary Shedd","actor_1":"Kelli Garner","actor_2":"Jack Davenport","actor_3":"Peter Coyote"},{"locations":"Coi Restaurant (373 Broadway)","lat_lon":"37.7980566,-122.4055993","release_year":"2015","production_company":"Sutro Films LLC","director":"Zachary Shedd","writer":"Zachary Shedd","actor_1":"Kelli Garner","actor_2":"Jack Davenport","actor_3":"Peter Coyote"},{"locations":"Foreign Cinema (2534 Mission)","lat_lon":"37.7563872,-122.4201868","release_year":"2015","production_company":"Sutro Films LLC","director":"Zachary Shedd","writer":"Zachary Shedd","actor_1":"Kelli Garner","actor_2":"Jack Davenport","actor_3":"Peter Coyote"},{"locations":"Bernal Heights Park","lat_lon":"37.7433416,-122.4161812","release_year":"2015","production_company":"Sutro Films LLC","director":"Zachary Shedd","writer":"Zachary Shedd","actor_1":"Kelli Garner","actor_2":"Jack Davenport","actor_3":"Peter Coyote"},{"locations":"Jackson St. at Spruce","lat_lon":"37.7899861,-122.4563239","release_year":"2015","production_company":"Sutro Films LLC","director":"Zachary Shedd","writer":"Zachary Shedd","actor_1":"Kelli Garner","actor_2":"Jack Davenport","actor_3":"Peter Coyote"},{"locations":"679 Madrid St","lat_lon":"37.7187499,-122.4369172","release_year":"2015","production_company":"Sutro Films LLC","director":"Zachary Shedd","writer":"Zachary Shedd","actor_1":"Kelli Garner","actor_2":"Jack Davenport","actor_3":"Peter Coyote"},{"locations":"Roxie Theater (3117 16th St.)","lat_lon":"37.7646242,-122.4246137","release_year":"2015","production_company":"Sutro Films LLC","director":"Zachary Shedd","writer":"Zachary Shedd","actor_1":"Kelli Garner","actor_2":"Jack Davenport","actor_3":"Peter Coyote"},{"locations":"Variety Preview Room (582 Market St.)","lat_lon":"37.7894681,-122.4038097","release_year":"2015","production_company":"Sutro Films LLC","director":"Zachary Shedd","writer":"Zachary Shedd","actor_1":"Kelli Garner","actor_2":"Jack Davenport","actor_3":"Peter Coyote"},{"locations":"Laguna Honda Hospital; 375 Laguna Honda Blvd.","lat_lon":"37.7490613,-122.4590734","release_year":"2015","production_company":"Sutro Films LLC","director":"Zachary Shedd","writer":"Zachary Shedd","actor_1":"Kelli Garner","actor_2":"Jack Davenport","actor_3":"Peter Coyote"},{"locations":"3232 Jackson Ave.","lat_lon":"37.7908904,-122.4509693","release_year":"2015","production_company":"Sutro Films LLC","director":"Zachary Shedd","writer":"Zachary Shedd","actor_1":"Kelli Garner","actor_2":"Jack Davenport","actor_3":"Peter Coyote"},{"locations":"20th St and Illinois/Faxon St. and Kenwood/Glenbrook at Mt. Springs","lat_lon":"37.7605644,-122.3897781","release_year":"2015","production_company":"Sutro Films LLC","director":"Zachary Shedd","writer":"Zachary Shedd","actor_1":"Kelli Garner","actor_2":"Jack Davenport","actor_3":"Peter Coyote"}]}
{"_id":{"$oid":"5e9e1a813483ea7ae2f71a82"},"title":"Another 48 Hours","description":[{"release_year":"1990","production_company":"Eddie Murphy Productions","distributor":"Paramount Pictures","director":"Walter Hill","writer":"Walter Hill","actor_1":"Eddie Murphy","actor_2":"Nick Nolte"},{"release_year":"1990","production_company":"Eddie Murphy Productions","distributor":"Paramount Pictures","director":"Walter Hill","writer":"Walter Hill","actor_1":"Eddie Murphy","actor_2":"Nick Nolte"}]}
{"_id":{"$oid":"5e9e1a813483ea7ae2f71a83"},"title":"Ant-Man","description":[{"locations":"Broadway between Powell and Davis","lat_lon":"37.798026,-122.4053064","release_year":"2015","fun_facts":"Driving shots","production_company":"PYM Particles Productions, LLC","distributor":"Walt Disney Studios Motion Pictures","director":"Peyton Reed","writer":"Gabriel Ferrari","actor_1":"Michael Douglas","actor_2":"Paul Rudd"},{"locations":"Grant between Bush and Broadway","lat_lon":"37.7941909,-122.4072556","release_year":"2015","fun_facts":"Driving shots","production_company":"PYM Particles Productions, LLC","distributor":"Walt Disney Studios Motion Pictures","director":"Peyton Reed","writer":"Gabriel Ferrari","actor_1":"Michael Douglas","actor_2":"Paul Rudd"},{"locations":"Market between Stuart and Van Ness","lat_lon":"37.7856502,-122.4082177","release_year":"2015","fun_facts":"Driving shots","production_company":"PYM Particles Productions, LLC","distributor":"Walt Disney Studios Motion Pictures","director":"Peyton Reed","writer":"Gabriel Ferrari","actor_1":"Michael Douglas","actor_2":"Paul Rudd"},{"locations":"601 Buena Vista Ave West at Java St.","lat_lon":"37.7669252,-122.4462213","release_year":"2015","production_company":"PYM Particles Productions, LLC","distributor":"Walt Disney Studios Motion Pictures","director":"Peyton Reed","writer":"Gabriel Ferrari","actor_1":"Michael Douglas","actor_2":"Paul Rudd"},{"locations":"Intersection of California at Polk","lat_lon":"37.7905922,-122.4228764","release_year":"2015","fun_facts":"Driving shots","production_company":"PYM Particles Productions, LLC","distributor":"Walt Disney Studios Motion Pictures","director":"Peyton Reed","writer":"Gabriel Ferrari","actor_1":"Michael Douglas","actor_2":"Paul Rudd"},{"locations":"Lombard at Hyde","lat_lon":"37.8020026,-122.4218348","release_year":"2015","production_company":"PYM Particles Productions, LLC","distributor":"Walt Disney Studios Motion Pictures","director":"Peyton Reed","writer":"Gabriel Ferrari","actor_1":"Michael Douglas","actor_2":"Paul Rudd"},{"locations":"Pine between Kearney and Davis","lat_lon":"37.7921397,-122.4015346","release_year":"2015","fun_facts":"Driving shots","production_company":"PYM Particles Productions, LLC","distributor":"Walt Disney Studios Motion Pictures","director":"Peyton Reed","writer":"Gabriel Ferrari","actor_1":"Michael Douglas","actor_2":"Paul Rudd"},{"locations":"California between Kearney and Davis","lat_lon":"37.7930792,-122.4017665","release_year":"2015","fun_facts":"Driving shots","production_company":"PYM Particles Productions, LLC","distributor":"Walt Disney Studios Motion Pictures","director":"Peyton Reed","writer":"Gabriel Ferrari","actor_1":"Michael Douglas","actor_2":"Paul Rudd"},{"locations":"Intersection of Broadway at Kearney","lat_lon":"37.7980142,-122.4077377","release_year":"2015","fun_facts":"Driving shots","production_company":"PYM Particles Productions, LLC","distributor":"Walt Disney Studios Motion Pictures","director":"Peyton Reed","writer":"Gabriel Ferrari","actor_1":"Michael Douglas","actor_2":"Paul Rudd"},{"locations":"Columbus between Bay and Washington","lat_lon":"37.8003512,-122.4124367","release_year":"2015","fun_facts":"Driving shots","production_company":"PYM Particles Productions, LLC","distributor":"Walt Disney Studios Motion Pictures","director":"Peyton Reed","writer":"Gabriel Ferrari","actor_1":"Michael Douglas","actor_2":"Paul Rudd"},{"locations":"Treasure Island, Building #1, Ave of the Palms","lat_lon":"37.8172223,-122.3728924","release_year":"2015","fun_facts":"Aerial and exterior shots","production_company":"PYM Particles Productions, LLC","distributor":"Walt Disney Studios Motion Pictures","director":"Peyton Reed","writer":"Gabriel Ferrari","actor_1":"Michael Douglas","actor_2":"Paul Rudd"},{"locations":"420 Jones St. at Ellis St.","lat_lon":"37.7852084,-122.4149117","release_year":"2015","production_company":"PYM Particles Productions, LLC","distributor":"Walt Disney Studios Motion Pictures","director":"Peyton Reed","writer":"Gabriel Ferrari","actor_1":"Michael Douglas","actor_2":"Paul Rudd"},{"locations":"Conzelman Rd at McCollough Rd and down Conzelman Rd.","lat_lon":"37.8336013,-122.4948321","release_year":"2015","fun_facts":"Aerial shots","production_company":"PYM Particles Productions, LLC","distributor":"Walt Disney Studios Motion Pictures","director":"Peyton Reed","writer":"Gabriel Ferrari","actor_1":"Michael Douglas","actor_2":"Paul Rudd"},{"locations":"California between Kearney and Davis","lat_lon":"37.7930792,-122.4017665","release_year":"2015","fun_facts":"Driving shots","production_company":"PYM Particles Productions, LLC","distributor":"Walt Disney Studios Motion Pictures","director":"Peyton Reed","writer":"Gabriel Ferrari","actor_1":"Michael Douglas","actor_2":"Paul Rudd"},{"locations":"Conzelman Rd at McCollough Rd and down Conzelman Rd.","lat_lon":"37.8336013,-122.4948321","release_year":"2015","fun_facts":"Aerial shots","production_company":"PYM Particles Productions, LLC","distributor":"Walt Disney Studios Motion Pictures","director":"Peyton Reed","writer":"Gabriel Ferrari","actor_1":"Michael Douglas","actor_2":"Paul Rudd"},{"locations":"Lombard at Hyde","lat_lon":"37.8020026,-122.4218348","release_year":"2015","production_company":"PYM Particles Productions, LLC","distributor":"Walt Disney Studios Motion Pictures","director":"Peyton Reed","writer":"Gabriel Ferrari","actor_1":"Michael Douglas","actor_2":"Paul Rudd"},{"locations":"601 Buena Vista Ave West at Java St.","lat_lon":"37.7669252,-122.4462213","release_year":"2015","production_company":"PYM Particles Productions, LLC","distributor":"Walt Disney Studios Motion Pictures","director":"Peyton Reed","writer":"Gabriel Ferrari","actor_1":"Michael Douglas","actor_2":"Paul Rudd"},{"locations":"420 Jones St. at Ellis St.","lat_lon":"37.7852084,-122.4149117","release_year":"2015","production_company":"PYM Particles Productions, LLC","distributor":"Walt Disney Studios Motion Pictures","director":"Peyton Reed","writer":"Gabriel Ferrari","actor_1":"Michael Douglas","actor_2":"Paul Rudd"},{"locations":"Broadway between Powell and Davis","lat_lon":"37.798026,-122.4053064","release_year":"2015","fun_facts":"Driving shots","production_company":"PYM Particles Productions, LLC","distributor":"Walt Disney Studios Motion Pictures","director":"Peyton Reed","writer":"Gabriel Ferrari","actor_1":"Michael Douglas","actor_2":"Paul Rudd"},{"locations":"Columbus between Bay and Washington","lat_lon":"37.8003512,-122.4124367","release_year":"2015","fun_facts":"Driving shots","production_company":"PYM Particles Productions, LLC","distributor":"Walt Disney Studios Motion Pictures","director":"Peyton Reed","writer":"Gabriel Ferrari","actor_1":"Michael Douglas","actor_2":"Paul Rudd"},{"locations":"Pine between Kearney and Davis","lat_lon":"37.7921397,-122.4015346","release_year":"2015","fun_facts":"Driving shots","production_company":"PYM Particles Productions, LLC","distributor":"Walt Disney Studios Motion Pictures","director":"Peyton Reed","writer":"Gabriel Ferrari","actor_1":"Michael Douglas","actor_2":"Paul Rudd"},{"locations":"Market between Stuart and Van Ness","lat_lon":"37.7856502,-122.4082177","release_year":"2015","fun_facts":"Driving shots","production_company":"PYM Particles Productions, LLC","distributor":"Walt Disney Studios Motion Pictures","director":"Peyton Reed","writer":"Gabriel Ferrari","actor_1":"Michael Douglas","actor_2":"Paul Rudd"},{"locations":"Grant between Bush and Broadway","lat_lon":"37.7941909,-122.4072556","release_year":"2015","fun_facts":"Driving shots","production_company":"PYM Particles Productions, LLC","distributor":"Walt Disney Studios Motion Pictures","director":"Peyton Reed","writer":"Gabriel Ferrari","actor_1":"Michael Douglas","actor_2":"Paul Rudd"},{"locations":"Intersection of Broadway at Kearney","lat_lon":"37.7980142,-122.4077377","release_year":"2015","fun_facts":"Driving shots","production_company":"PYM Particles Productions, LLC","distributor":"Walt Disney Studios Motion Pictures","director":"Peyton Reed","writer":"Gabriel Ferrari","actor_1":"Michael Douglas","actor_2":"Paul Rudd"},{"locations":"Intersection of California at Polk","lat_lon":"37.7905922,-122.4228764","release_year":"2015","fun_facts":"Driving shots","production_company":"PYM Particles Productions, LLC","distributor":"Walt Disney Studios Motion Pictures","director":"Peyton Reed","writer":"Gabriel Ferrari","actor_1":"Michael Douglas","actor_2":"Paul Rudd"},{"locations":"Treasure Island, Building #1, Ave of the Palms","lat_lon":"37.8172223,-122.3728924","release_year":"2015","fun_facts":"Aerial and exterior shots","production_company":"PYM Particles Productions, LLC","distributor":"Walt Disney Studios Motion Pictures","director":"Peyton Reed","writer":"Gabriel Ferrari","actor_1":"Michael Douglas","actor_2":"Paul Rudd"}]}
{"_id":{"$oid":"5e9e1a813483ea7ae2f71a84"},"title":"Ant-Man and the Wasp","description":[{"locations":"Montgomery btwn Broadway and Pacific","lat_lon":"37.797801,-122.4059539","release_year":"2018","fun_facts":"Car stunt scene","production_company":"PYM Particles Productions II, LLC","distributor":"Walt Disney Studios Motion Pictures","director":"Peyton Reed","writer":"Chris McKenna","actor_1":"Paul Rudd","actor_2":"Evangeline Lilly","actor_3":"Michael Douglas"},{"locations":"Saint Louis Alley at Jackson","lat_lon":"37.7959845,-122.4093025","release_year":"2018","production_company":"PYM Particles Productions II, LLC","distributor":"Walt Disney Studios Motion Pictures","director":"Peyton Reed","writer":"Chris McKenna","actor_1":"Paul Rudd","actor_2":"Evangeline Lilly","actor_3":"Michael Douglas"},{"locations":"Jones St btwn Sacramento and Pine","lat_lon":"37.791417, -122.414109","release_year":"2018","fun_facts":"Stunt scene involving car flip","production_company":"PYM Particles Productions II, LLC","distributor":"Walt Disney Studios Motion Pictures","director":"Peyton Reed","writer":"Chris McKenna","actor_1":"Paul Rudd","actor_2":"Evangeline Lilly","actor_3":"Michael Douglas"},{"locations":"Leavenworth St at Lombard St","lat_lon":"37.8022076,-122.4201872","release_year":"2018","production_company":"PYM Particles Productions II, LLC","distributor":"Walt Disney Studios Motion Pictures","director":"Peyton Reed","writer":"Chris McKenna","actor_1":"Paul Rudd","actor_2":"Evangeline Lilly","actor_3":"Michael Douglas"},{"locations":"Jones St btwn Green and Pacific","lat_lon":"37.7972722,-122.4174867","release_year":"2018","fun_facts":"Stunt scene involving car jump","production_company":"PYM Particles Productions II, LLC","distributor":"Walt Disney Studios Motion Pictures","director":"Peyton Reed","writer":"Chris McKenna","actor_1":"Paul Rudd","actor_2":"Evangeline Lilly","actor_3":"Michael Douglas"},{"locations":"Russian Hill","lat_lon":"37.8008489,-122.4203317","release_year":"2018","fun_facts":"VFX and B-roll Shots","production_company":"PYM Particles Productions II, LLC","distributor":"Walt Disney Studios Motion Pictures","director":"Peyton Reed","writer":"Chris McKenna","actor_1":"Paul Rudd","actor_2":"Evangeline Lilly","actor_3":"Michael Douglas"},{"locations":"Laguna St btwn Jackson and Broadway","lat_lon":"37.7939402,-122.4320327","release_year":"2018","production_company":"PYM Particles Productions II, LLC","distributor":"Walt Disney Studios Motion Pictures","director":"Peyton Reed","writer":"Chris McKenna","actor_1":"Paul Rudd","actor_2":"Evangeline Lilly","actor_3":"Michael Douglas"},{"locations":"Jefferson St at Taylor St","lat_lon":"37.8082214,-122.4179968","release_year":"2018","production_company":"PYM Particles Productions II, LLC","distributor":"Walt Disney Studios Motion Pictures","director":"Peyton Reed","writer":"Chris McKenna","actor_1":"Paul Rudd","actor_2":"Evangeline Lilly","actor_3":"Michael Douglas"},{"locations":"Geary St - Hyde St - Ellis St","lat_lon":"37.7844584,-122.4182846","release_year":"2018","production_company":"PYM Particles Productions II, LLC","distributor":"Walt Disney Studios Motion Pictures","director":"Peyton Reed","writer":"Chris McKenna","actor_1":"Paul Rudd","actor_2":"Evangeline Lilly","actor_3":"Michael Douglas"},{"locations":"Bush St at Mason St","lat_lon":"37.7899652,-122.4126468","release_year":"2018","fun_facts":"VFX Plate Shots","production_company":"PYM Particles Productions II, LLC","distributor":"Walt Disney Studios Motion Pictures","director":"Peyton Reed","writer":"Chris McKenna","actor_1":"Paul Rudd","actor_2":"Evangeline Lilly","actor_3":"Michael Douglas"},{"locations":"California St btwn Mason and Leavenworth","lat_lon":"37.7915196,-122.4146887","release_year":"2018","fun_facts":"Stunt scene involving car flip","production_company":"PYM Particles Productions II, LLC","distributor":"Walt Disney Studios Motion Pictures","director":"Peyton Reed","writer":"Chris McKenna","actor_1":"Paul Rudd","actor_2":"Evangeline Lilly","actor_3":"Michael Douglas"},{"locations":"544 Jones","lat_lon":"37.7863395,-122.4152937","release_year":"2018","fun_facts":"VFX Plate Shots","production_company":"PYM Particles Productions II, LLC","distributor":"Walt Disney Studios Motion Pictures","director":"Peyton Reed","writer":"Chris McKenna","actor_1":"Paul Rudd","actor_2":"Evangeline Lilly","actor_3":"Michael Douglas"},{"locations":"Java St","lat_lon":"37.7665587,-122.4465694","release_year":"2018","fun_facts":"VFX Plate Shots","production_company":"PYM Particles Productions II, LLC","distributor":"Walt Disney Studios Motion Pictures","director":"Peyton Reed","writer":"Chris McKenna","actor_1":"Paul Rudd","actor_2":"Evangeline Lilly","actor_3":"Michael Douglas"},{"locations":"Montgomery btwn Green and Pacific","lat_lon":"37.798784,-122.4061687","release_year":"2018","fun_facts":"Stunt scene involving weaving car","production_company":"PYM Particles Productions II, LLC","distributor":"Walt Disney Studios Motion Pictures","director":"Peyton Reed","writer":"Chris McKenna","actor_1":"Paul Rudd","actor_2":"Evangeline Lilly","actor_3":"Michael Douglas"},{"locations":"Pier 27","lat_lon":"37.8053331,-122.4033424","release_year":"2018","production_company":"PYM Particles Productions II, LLC","distributor":"Walt Disney Studios Motion Pictures","director":"Peyton Reed","writer":"Chris McKenna","actor_1":"Paul Rudd","actor_2":"Evangeline Lilly","actor_3":"Michael Douglas"},{"locations":"Financial District","lat_lon":"37.7927731,-122.4054696","release_year":"2018","fun_facts":"VFX and B-roll Shots","production_company":"PYM Particles Productions II, LLC","distributor":"Walt Disney Studios Motion Pictures","director":"Peyton Reed","writer":"Chris McKenna","actor_1":"Paul Rudd","actor_2":"Evangeline Lilly","actor_3":"Michael Douglas"},{"locations":"490 Geary St","lat_lon":"37.787126,-122.4135863","release_year":"2018","fun_facts":"VFX Plate Shots","production_company":"PYM Particles Productions II, LLC","distributor":"Walt Disney Studios Motion Pictures","director":"Peyton Reed","writer":"Chris McKenna","actor_1":"Paul Rudd","actor_2":"Evangeline Lilly","actor_3":"Michael Douglas"},{"locations":"Lombard St btwn Polk and Leavenworth","lat_lon":"37.8019262,-122.4225427","release_year":"2018","fun_facts":"Stunt driving scene","production_company":"PYM Particles Productions II, LLC","distributor":"Walt Disney Studios Motion Pictures","director":"Peyton Reed","writer":"Chris McKenna","actor_1":"Paul Rudd","actor_2":"Evangeline Lilly","actor_3":"Michael Douglas"},{"locations":"Westar Marine Services, Pier 50","lat_lon":"37.7741499,-122.386682","release_year":"2018","production_company":"PYM Particles Productions II, LLC","distributor":"Walt Disney Studios Motion Pictures","director":"Peyton Reed","writer":"Chris McKenna","actor_1":"Paul Rudd","actor_2":"Evangeline Lilly","actor_3":"Michael Douglas"},{"locations":"Vallejo St btwn Montgomery and Davis","lat_lon":"37.799518,-122.4024287","release_year":"2018","fun_facts":"Stunt scene involving weaving car","production_company":"PYM Particles Productions II, LLC","distributor":"Walt Disney Studios Motion Pictures","director":"Peyton Reed","writer":"Chris McKenna","actor_1":"Paul Rudd","actor_2":"Evangeline Lilly","actor_3":"Michael Douglas"},{"locations":"Powell St btwn North Point and Embarcadero","lat_lon":"37.807702,-122.4145517","release_year":"2018","fun_facts":"Location of film headquarters","production_company":"PYM Particles Productions II, LLC","distributor":"Walt Disney Studios Motion Pictures","director":"Peyton Reed","writer":"Chris McKenna","actor_1":"Paul Rudd","actor_2":"Evangeline Lilly","actor_3":"Michael Douglas"},{"locations":"Missouri St at 18th St","lat_lon":"37.762585,-122.398741","release_year":"2018","fun_facts":"VFX Plate Shots, chase scene","production_company":"PYM Particles Productions II, LLC","distributor":"Walt Disney Studios Motion Pictures","director":"Peyton Reed","writer":"Chris McKenna","actor_1":"Paul Rudd","actor_2":"Evangeline Lilly","actor_3":"Michael Douglas"},{"locations":"Telegraph Hill/North Beach","lat_lon":"37.8027385,-122.423314","release_year":"2018","fun_facts":"VFX and B-roll Shots","production_company":"PYM Particles Productions II, LLC","distributor":"Walt Disney Studios Motion Pictures","director":"Peyton Reed","writer":"Chris McKenna","actor_1":"Paul Rudd","actor_2":"Evangeline Lilly","actor_3":"Michael Douglas"},{"locations":"Little Embarcadero btwn Powell and Mason","lat_lon":"37.806038,-122.4136615,17","release_year":"2018","production_company":"PYM Particles Productions II, LLC","distributor":"Walt Disney Studios Motion Pictures","director":"Peyton Reed","writer":"Chris McKenna","actor_1":"Paul Rudd","actor_2":"Evangeline Lilly","actor_3":"Michael Douglas"}]}
{"_id":{"$oid":"5e9e1a813483ea7ae2f71a85"},"title":"Around the Fire","description":[{"locations":"Ocean Beach","lat_lon":"37.7525616,-122.5448137","release_year":"1998","fun_facts":"On Jan. 25, 1878, the King Philip ship crashed in Ocean Beach. Occasionally, the ship's wreckage may be found on the beach-- most recently it was seen in 2007.","production_company":"Paradigm Studio","distributor":"Ardustry Home Entertainment","director":"John Jacobsen","writer":"John Comerford","actor_1":"Tara Reid"},{"locations":"Ocean Beach","lat_lon":"37.7525616,-122.5448137","release_year":"1998","fun_facts":"On Jan. 25, 1878, the King Philip ship crashed in Ocean Beach. Occasionally, the ship's wreckage may be found on the beach-- most recently it was seen in 2007.","production_company":"Paradigm Studio","distributor":"Ardustry Home Entertainment","director":"John Jacobsen","writer":"John Comerford","actor_1":"Tara Reid"}]}
{"_id":{"$oid":"5e9e1a813483ea7ae2f71a86"},"title":"Attack of the Killer Tomatoes","description":[{"locations":"Hyde Street Cable Car","lat_lon":"37.784294,-122.3963561","release_year":"1978","fun_facts":"SF Cable Cars are the only moving National Historical Landmark.","production_company":"Four Square Productions","distributor":"NAI Entertainment","director":"John DeBello","writer":"John DeBello","actor_1":"David Miller"},{"locations":"Hyde Street Cable Car","lat_lon":"37.784294,-122.3963561","release_year":"1978","fun_facts":"SF Cable Cars are the only moving National Historical Landmark.","production_company":"Four Square Productions","distributor":"NAI Entertainment","director":"John DeBello","writer":"John DeBello","actor_1":"David Miller"}]}
{"_id":{"$oid":"5e9e1a813483ea7ae2f71a87"},"title":"Babies","description":[{"release_year":"2010","production_company":"Canal+","distributor":"Focus Features","director":"Thomas Balmes","writer":"Thomas Balmes","actor_1":"Bayar","actor_2":"Hattie"},{"release_year":"2010","production_company":"Canal+","distributor":"Focus Features","director":"Thomas Balmes","writer":"Thomas Balmes","actor_1":"Bayar","actor_2":"Hattie"}]}
{"_id":{"$oid":"5e9e1a813483ea7ae2f71a88"},"title":"Ballers Season 3","description":[{"locations":"Another Café, 1191 Pine St at Leavenworth","lat_lon":"37.7901871,-122.4176339","release_year":"2017","production_company":"Chori Perros Productions, LLC","distributor":"HBO","director":"Julian Farino","writer":"Stephen Levinson","actor_1":"Dwayne Johnson","actor_2":"John David Washington","actor_3":"Omar Benson Miller"},{"locations":"California and Jones St.","lat_lon":"37.7914327,-122.4163048","release_year":"2017","production_company":"Chori Perros Productions, LLC","distributor":"HBO","director":"Julian Farino","writer":"Stephen Levinson","actor_1":"Dwayne Johnson","actor_2":"John David Washington","actor_3":"Omar Benson Miller"},{"locations":"Fairmont Hotel (950 Mason Street, Nob Hill)","lat_lon":"37.791544, -122.410854","release_year":"2017","production_company":"Chori Perros Productions, LLC","distributor":"HBO","director":"Julian Farino","writer":"Stephen Levinson","actor_1":"Dwayne Johnson","actor_2":"John David Washington","actor_3":"Omar Benson Miller"},{"locations":"Embarcadero around Rincon Park","lat_lon":"37.7915717,-122.3921311","release_year":"2017","production_company":"Chori Perros Productions, LLC","distributor":"HBO","director":"Julian Farino","writer":"Stephen Levinson","actor_1":"Dwayne Johnson","actor_2":"John David Washington","actor_3":"Omar Benson Miller"},{"locations":"Huntington Park (California & Taylor Streets, Nob Hill)","lat_lon":"37.79218,-122.4143687","release_year":"2017","production_company":"Chori Perros Productions, LLC","distributor":"HBO","director":"Julian Farino","writer":"Stephen Levinson","actor_1":"Dwayne Johnson","actor_2":"John David Washington","actor_3":"Omar Benson Miller"},{"locations":"Driving around Taylor/Pacific/Leavenworth","lat_lon":"37.7953944,-122.417614","release_year":"2017","production_company":"Chori Perros Productions, LLC","distributor":"HBO","director":"Julian Farino","writer":"Stephen Levinson","actor_1":"Dwayne Johnson","actor_2":"John David Washington","actor_3":"Omar Benson Miller"},{"locations":"San Remo Hotel (2237 Mason)","lat_lon":"37.7040224,-122.1448418","release_year":"2017","production_company":"Chori Perros Productions, LLC","distributor":"HBO","director":"Julian Farino","writer":"Stephen Levinson","actor_1":"Dwayne Johnson","actor_2":"John David Washington","actor_3":"Omar Benson Miller"},{"locations":"Another Café, 1191 Pine St at Leavenworth","lat_lon":"37.7901871,-122.4176339","release_year":"2017","production_company":"Chori Perros Productions, LLC","distributor":"HBO","director":"Julian Farino","writer":"Stephen Levinson","actor_1":"Dwayne Johnson","actor_2":"John David Washington","actor_3":"Omar Benson Miller"},{"locations":"California and Jones St.","lat_lon":"37.7914327,-122.4163048","release_year":"2017","production_company":"Chori Perros Productions, LLC","distributor":"HBO","director":"Julian Farino","writer":"Stephen Levinson","actor_1":"Dwayne Johnson","actor_2":"John David Washington","actor_3":"Omar Benson Miller"},{"locations":"Fairmont Hotel (950 Mason Street, Nob Hill)","lat_lon":"37.791544, -122.410854","release_year":"2017","production_company":"Chori Perros Productions, LLC","distributor":"HBO","director":"Julian Farino","writer":"Stephen Levinson","actor_1":"Dwayne Johnson","actor_2":"John David Washington","actor_3":"Omar Benson Miller"},{"locations":"Embarcadero around Rincon Park","lat_lon":"37.7915717,-122.3921311","release_year":"2017","production_company":"Chori Perros Productions, LLC","distributor":"HBO","director":"Julian Farino","writer":"Stephen Levinson","actor_1":"Dwayne Johnson","actor_2":"John David Washington","actor_3":"Omar Benson Miller"},{"locations":"Huntington Park (California & Taylor Streets, Nob Hill)","lat_lon":"37.79218,-122.4143687","release_year":"2017","production_company":"Chori Perros Productions, LLC","distributor":"HBO","director":"Julian Farino","writer":"Stephen Levinson","actor_1":"Dwayne Johnson","actor_2":"John David Washington","actor_3":"Omar Benson Miller"},{"locations":"Driving around Taylor/Pacific/Leavenworth","lat_lon":"37.7953944,-122.417614","release_year":"2017","production_company":"Chori Perros Productions, LLC","distributor":"HBO","director":"Julian Farino","writer":"Stephen Levinson","actor_1":"Dwayne Johnson","actor_2":"John David Washington","actor_3":"Omar Benson Miller"},{"locations":"San Remo Hotel (2237 Mason)","lat_lon":"37.7040224,-122.1448418","release_year":"2017","production_company":"Chori Perros Productions, LLC","distributor":"HBO","director":"Julian Farino","writer":"Stephen Levinson","actor_1":"Dwayne Johnson","actor_2":"John David Washington","actor_3":"Omar Benson Miller"}]}
{"_id":{"$oid":"5e9e1a813483ea7ae2f71a89"},"title":"Barbary Coast","description":[{"release_year":"1935","production_company":"The Samuel Goldwyn Company","distributor":"United Artists","director":"Howard Hawks","writer":"Ben Hecht","actor_1":"Mariam Hopkins","actor_2":"Edward G. Robinson","actor_3":"Joel McCrea"},{"release_year":"1935","production_company":"The Samuel Goldwyn Company","distributor":"United Artists","director":"Howard Hawks","writer":"Ben Hecht","actor_1":"Mariam Hopkins","actor_2":"Edward G. Robinson","actor_3":"Joel McCrea"}]}
{"_id":{"$oid":"5e9e1a813483ea7ae2f71a8a"},"title":"Basic Instinct","description":[{"locations":"Gibb Street (Chinatown)","lat_lon":"37.795228,-122.405126","release_year":"1992","production_company":"Carolco Pictures","distributor":"TriStar Pictures","director":"Paul Verhoeven","writer":"Joe Eszterhas","actor_1":"Michael Douglas","actor_2":"Sharon Stone","actor_3":"George Dzundza"},{"locations":"2930 Vallejo Street","lat_lon":"37.7940849,-122.4478422","release_year":"1992","production_company":"Carolco Pictures","distributor":"TriStar Pictures","director":"Paul Verhoeven","writer":"Joe Eszterhas","actor_1":"Michael Douglas","actor_2":"Sharon Stone","actor_3":"George Dzundza"},{"locations":"Raw Hide II (280 Seventh Street)","lat_lon":"37.7768513,-122.4107102","release_year":"1992","production_company":"Carolco Pictures","distributor":"TriStar Pictures","director":"Paul Verhoeven","writer":"Joe Eszterhas","actor_1":"Michael Douglas","actor_2":"Sharon Stone","actor_3":"George Dzundza"},{"locations":"Tosca Café (242 Columbus Avenue)","lat_lon":"37.8011406,-122.4136446","release_year":"1992","production_company":"Carolco Pictures","distributor":"TriStar Pictures","director":"Paul Verhoeven","writer":"Joe Eszterhas","actor_1":"Michael Douglas","actor_2":"Sharon Stone","actor_3":"George Dzundza"},{"locations":"Transbay Terminal (Mission Street at 1st Street)","lat_lon":"37.7899142,-122.3949045","release_year":"1992","fun_facts":"Built in 1939, the Terminal linked San Francisco, the East Bay, and Sacramento by rail for the first time.","production_company":"Carolco Pictures","distributor":"TriStar Pictures","director":"Paul Verhoeven","writer":"Joe Eszterhas","actor_1":"Michael Douglas","actor_2":"Sharon Stone","actor_3":"George Dzundza"},{"locations":"Yerba Buena Center for the Arts","lat_lon":"37.7856479,-122.4043791","release_year":"1992","production_company":"Carolco Pictures","distributor":"TriStar Pictures","director":"Paul Verhoeven","writer":"Joe Eszterhas","actor_1":"Michael Douglas","actor_2":"Sharon Stone","actor_3":"George Dzundza"},{"locations":"Chinatown","lat_lon":"37.7860022,-122.4124268","release_year":"1992","fun_facts":"First established in the mid-19th Century, SF's Chinatown is the oldest and largest Chinatown in the US.","production_company":"Carolco Pictures","distributor":"TriStar Pictures","director":"Paul Verhoeven","writer":"Joe Eszterhas","actor_1":"Michael Douglas","actor_2":"Sharon Stone","actor_3":"George Dzundza"},{"locations":"Kearney Street (Telegraph Hill)","lat_lon":"37.7975634,-122.4076255","release_year":"1992","production_company":"Carolco Pictures","distributor":"TriStar Pictures","director":"Paul Verhoeven","writer":"Joe Eszterhas","actor_1":"Michael Douglas","actor_2":"Sharon Stone","actor_3":"George Dzundza"},{"locations":"2104 Broadway","lat_lon":"37.7949417,-122.4343228","release_year":"1992","production_company":"Carolco Pictures","distributor":"TriStar Pictures","director":"Paul Verhoeven","writer":"Joe Eszterhas","actor_1":"Michael Douglas","actor_2":"Sharon Stone","actor_3":"George Dzundza"},{"locations":"Steinhart Aquarium (California Academy of Sciences, Golden Gate Park)","lat_lon":"37.767992,-122.484944","release_year":"1992","fun_facts":"The Steinhart Aquarium is home to over 38,000 animals, which represent more than 900 species.","production_company":"Carolco Pictures","distributor":"TriStar Pictures","director":"Paul Verhoeven","writer":"Joe Eszterhas","actor_1":"Michael Douglas","actor_2":"Sharon Stone","actor_3":"George Dzundza"},{"locations":"Pier 7 (The Embarcadero)","lat_lon":"37.7986599,-122.399004","release_year":"1992","production_company":"Carolco Pictures","distributor":"TriStar Pictures","director":"Paul Verhoeven","writer":"Joe Eszterhas","actor_1":"Michael Douglas","actor_2":"Sharon Stone","actor_3":"George Dzundza"},{"locations":"Hall of Justice (850 Bryant Street)","lat_lon":"37.7751502,-122.4061888","release_year":"1992","production_company":"Carolco Pictures","distributor":"TriStar Pictures","director":"Paul Verhoeven","writer":"Joe Eszterhas","actor_1":"Michael Douglas","actor_2":"Sharon Stone","actor_3":"George Dzundza"},{"locations":"1158-70 Montgomery Street","lat_lon":"37.7999912,-122.4061607","release_year":"1992","production_company":"Carolco Pictures","distributor":"TriStar Pictures","director":"Paul Verhoeven","writer":"Joe Eszterhas","actor_1":"Michael Douglas","actor_2":"Sharon Stone","actor_3":"George Dzundza"},{"locations":"Yerba Buena Center for the Arts","lat_lon":"37.7856479,-122.4043791","release_year":"1992","production_company":"Carolco Pictures","distributor":"TriStar Pictures","director":"Paul Verhoeven","writer":"Joe Eszterhas","actor_1":"Michael Douglas","actor_2":"Sharon Stone","actor_3":"George Dzundza"},{"locations":"Transbay Terminal (Mission Street at 1st Street)","lat_lon":"37.7899142,-122.3949045","release_year":"1992","fun_facts":"Built in 1939, the Terminal linked San Francisco, the East Bay, and Sacramento by rail for the first time.","production_company":"Carolco Pictures","distributor":"TriStar Pictures","director":"Paul Verhoeven","writer":"Joe Eszterhas","actor_1":"Michael Douglas","actor_2":"Sharon Stone","actor_3":"George Dzundza"},{"locations":"Tosca Café (242 Columbus Avenue)","lat_lon":"37.8011406,-122.4136446","release_year":"1992","production_company":"Carolco Pictures","distributor":"TriStar Pictures","director":"Paul Verhoeven","writer":"Joe Eszterhas","actor_1":"Michael Douglas","actor_2":"Sharon Stone","actor_3":"George Dzundza"},{"locations":"Steinhart Aquarium (California Academy of Sciences, Golden Gate Park)","lat_lon":"37.767992,-122.484944","release_year":"1992","fun_facts":"The Steinhart Aquarium is home to over 38,000 animals, which represent more than 900 species.","production_company":"Carolco Pictures","distributor":"TriStar Pictures","director":"Paul Verhoeven","writer":"Joe Eszterhas","actor_1":"Michael Douglas","actor_2":"Sharon Stone","actor_3":"George Dzundza"},{"locations":"Raw Hide II (280 Seventh Street)","lat_lon":"37.7768513,-122.4107102","release_year":"1992","production_company":"Carolco Pictures","distributor":"TriStar Pictures","director":"Paul Verhoeven","writer":"Joe Eszterhas","actor_1":"Michael Douglas","actor_2":"Sharon Stone","actor_3":"George Dzundza"},{"locations":"Pier 7 (The Embarcadero)","lat_lon":"37.7986599,-122.399004","release_year":"1992","production_company":"Carolco Pictures","distributor":"TriStar Pictures","director":"Paul Verhoeven","writer":"Joe Eszterhas","actor_1":"Michael Douglas","actor_2":"Sharon Stone","actor_3":"George Dzundza"},{"locations":"Kearney Street (Telegraph Hill)","lat_lon":"37.7975634,-122.4076255","release_year":"1992","production_company":"Carolco Pictures","distributor":"TriStar Pictures","director":"Paul Verhoeven","writer":"Joe Eszterhas","actor_1":"Michael Douglas","actor_2":"Sharon Stone","actor_3":"George Dzundza"},{"locations":"Hall of Justice (850 Bryant Street)","lat_lon":"37.7751502,-122.4061888","release_year":"1992","production_company":"Carolco Pictures","distributor":"TriStar Pictures","director":"Paul Verhoeven","writer":"Joe Eszterhas","actor_1":"Michael Douglas","actor_2":"Sharon Stone","actor_3":"George Dzundza"},{"locations":"2930 Vallejo Street","lat_lon":"37.7940849,-122.4478422","release_year":"1992","production_company":"Carolco Pictures","distributor":"TriStar Pictures","director":"Paul Verhoeven","writer":"Joe Eszterhas","actor_1":"Michael Douglas","actor_2":"Sharon Stone","actor_3":"George Dzundza"},{"locations":"Chinatown","lat_lon":"37.7860022,-122.4124268","release_year":"1992","fun_facts":"First established in the mid-19th Century, SF's Chinatown is the oldest and largest Chinatown in the US.","production_company":"Carolco Pictures","distributor":"TriStar Pictures","director":"Paul Verhoeven","writer":"Joe Eszterhas","actor_1":"Michael Douglas","actor_2":"Sharon Stone","actor_3":"George Dzundza"},{"locations":"Gibb Street (Chinatown)","lat_lon":"37.795228,-122.405126","release_year":"1992","production_company":"Carolco Pictures","distributor":"TriStar Pictures","director":"Paul Verhoeven","writer":"Joe Eszterhas","actor_1":"Michael Douglas","actor_2":"Sharon Stone","actor_3":"George Dzundza"},{"locations":"1158-70 Montgomery Street","lat_lon":"37.7999912,-122.4061607","release_year":"1992","production_company":"Carolco Pictures","distributor":"TriStar Pictures","director":"Paul Verhoeven","writer":"Joe Eszterhas","actor_1":"Michael Douglas","actor_2":"Sharon Stone","actor_3":"George Dzundza"},{"locations":"2104 Broadway","lat_lon":"37.7949417,-122.4343228","release_year":"1992","production_company":"Carolco Pictures","distributor":"TriStar Pictures","director":"Paul Verhoeven","writer":"Joe Eszterhas","actor_1":"Michael Douglas","actor_2":"Sharon Stone","actor_3":"George Dzundza"}]}
{"_id":{"$oid":"5e9e1a813483ea7ae2f71a8b"},"title":"Beaches","description":[{"release_year":"1988","production_company":"Silver Screen Partners IV","distributor":"Columbia Broadcasting System","director":"Garry Marshall","writer":"Mary Agnes Donoghue","actor_1":"Bette Midler","actor_2":"Barbara Hershey","actor_3":"John Heard"},{"release_year":"1988","production_company":"Silver Screen Partners IV","distributor":"Columbia Broadcasting System","director":"Garry Marshall","writer":"Mary Agnes Donoghue","actor_1":"Bette Midler","actor_2":"Barbara Hershey","actor_3":"John Heard"}]}
{"_id":{"$oid":"5e9e1a813483ea7ae2f71a8c"},"title":"Beautiful Boy","description":[{"locations":"18th St at San Bruno Ave.","lat_lon":"37.7620649,-122.4074252","release_year":"2018","production_company":"Big Indie Pictures","distributor":"Amazon Studios","director":"Felix van Groeningen","writer":"Luke Davies","actor_1":"Steve Carell","actor_2":"Timothee Chalamet","actor_3":"Maura Tierney"},{"locations":"Ohloff Recovery Center (601 Steiner St)","lat_lon":"37.7748567,-122.4351992","release_year":"2018","production_company":"Big Indie Pictures","distributor":"Amazon Studios","director":"Felix van Groeningen","writer":"Luke Davies","actor_1":"Steve Carell","actor_2":"Timothee Chalamet","actor_3":"Maura Tierney"},{"locations":"Divisadero between Broadway and Greenwich","lat_lon":"37.795745,-122.4441191","release_year":"2018","production_company":"Big Indie Pictures","distributor":"Amazon Studios","director":"Felix van Groeningen","writer":"Luke Davies","actor_1":"Steve Carell","actor_2":"Timothee Chalamet","actor_3":"Maura Tierney"},{"locations":"Olympic Flame Café, 555 Geary St","lat_lon":"37.7867063,-122.4145709","release_year":"2018","production_company":"Big Indie Pictures","distributor":"Amazon Studios","director":"Felix van Groeningen","writer":"Luke Davies","actor_1":"Steve Carell","actor_2":"Timothee Chalamet","actor_3":"Maura Tierney"},{"locations":"Wisconsin between 19th and 20th St","lat_lon":"37.760306, -122.399266","release_year":"2018","production_company":"Big Indie Pictures","distributor":"Amazon Studios","director":"Felix van Groeningen","writer":"Luke Davies","actor_1":"Steve Carell","actor_2":"Timothee Chalamet","actor_3":"Maura Tierney"},{"locations":"Haight at Masonic","lat_lon":"37.7702276,-122.4475563","release_year":"2018","production_company":"Big Indie Pictures","distributor":"Amazon Studios","director":"Felix van Groeningen","writer":"Luke Davies","actor_1":"Steve Carell","actor_2":"Timothee Chalamet","actor_3":"Maura Tierney"},{"locations":"Tenderloin Neighborhood","lat_lon":"37.7839295,-122.4174298","release_year":"2018","production_company":"Big Indie Pictures","distributor":"Amazon Studios","director":"Felix van Groeningen","writer":"Luke Davies","actor_1":"Steve Carell","actor_2":"Timothee Chalamet","actor_3":"Maura Tierney"},{"locations":"18th St at San Bruno Ave.","lat_lon":"37.7620649,-122.4074252","release_year":"2018","production_company":"Big Indie Pictures","distributor":"Amazon Studios","director":"Felix van Groeningen","writer":"Luke Davies","actor_1":"Steve Carell","actor_2":"Timothee Chalamet","actor_3":"Maura Tierney"},{"locations":"Ohloff Recovery Center (601 Steiner St)","lat_lon":"37.7748567,-122.4351992","release_year":"2018","production_company":"Big Indie Pictures","distributor":"Amazon Studios","director":"Felix van Groeningen","writer":"Luke Davies","actor_1":"Steve Carell","actor_2":"Timothee Chalamet","actor_3":"Maura Tierney"},